{"features": [{"properties": {"sno": "500101001", "sna": "YouBike2.0_捷運科技大樓站", "tot": "29", "sbi": "13", "sbi_2": "15", "sarea": "大安區", "mday": "2022-05-24 15:15:12", "lat": "25.02605", "lng": "121.5436", "ar": "復興南路二段235號前", "bemp": "16", "bemp_2": "14", "act": "1", "ub_tyope2_0": 2.0, "ub_tyope1_0": 0.0, "ub_time0": 0, "ub_time5": 5}, "geometry": {"coordinates": [121.5436, 25.02605]}}, {"properties": {"sno": "500101002", "sna": "YouBike2.0_復興南路二段273號前", "tot": "21", "sbi": "0", "sbi_2": "3", "sarea": "大安區", "mday": "2022-05-24 12:03:04", "lat": "25.02565", "lng": "121.54357", "ar": "復興南路二段273號西側", "bemp": "21", "bemp_2": "18", "act": "1", "ub_tyope2_0": 2.0, "ub_tyope1_0": 0.0, "ub_time0": 0, "ub_time5": 5}, "geometry": {"coordinates": [121.54357, 25.02565]}}, {"properties": {"sno": "500101003", "sna": "YouBike2.0_國北教大實小東側門", "tot": "16", "sbi": "2", "sbi_2": "2", "sarea": "大安區", "mday": "2022-05-24 12:49:10", "lat": "25.02429", "lng": "121.54124", "ar": "和平東路二段96巷7號", "bemp": "14", "bemp_2": "14", "act": "1", "ub_tyope2_0": 2.0, "ub_tyope1_0": 0.0, "ub_time0": 0, "ub_time5": 5}, "geometry": {"coordinates": [121.54124, 25.02429]}}, {"properties": {"sno": "500101004", "sna": "YouBike2.0_和平公園東側", "tot": "11", "sbi": "5", "sbi_2": "6", "sarea": "大安區", "mday": "2022-05-24 15:18:12", "lat": "25.02351", "lng": "121.54282", "ar": "和平東路二段118巷33號", "bemp": "6", "bemp_2": "5", "act": "1", "ub_tyope2_0": 2.0, "ub_tyope1_0": 0.0, "ub_time0": 0, "ub_time5": 5}, "geometry": {"coordinates": [121.54282, 25.02351]}}, {"properties": {"sno": "500101005", "sna": "YouBike2.0_辛亥復興路口西北側", "tot": "16", "sbi": "2", "sbi_2": "2", "sarea": "大安區", "mday": "2022-05-24 15:26:37", "lat": "25.02153", "lng": "121.54299", "ar": "復興南路二段368號", "bemp": "14", "bemp_2": "14", "act": "1", "ub_tyope2_0": 2.0, "ub_tyope1_0": 0.0, "ub_time0": 0, "ub_time5": 5}, "geometry": {"coordinates": [121.54299, 25.02153]}}, {"properties": {"sno": "500101006", "sna": "YouBike2.0_復興南路二段280號前", "tot": "11", "sbi": "0", "sbi_2": "2", "sarea": "大安區", "mday": "2022-05-24 15:10:10", "lat": "25.02429", "lng": "121.54328", "ar": "復興南路二段280號", "bemp": "11", "bemp_2": "9", "act": "1", "ub_tyope2_0": 2.0, "ub_tyope1_0": 0.0, "ub_time0": 0, "ub_time5": 5}, "geometry": {"coordinates": [121.54328, 25.02429]}}, {"properties": {"sno": "500101007", "sna": "YouBike2.0_復興南路二段340巷口", "tot": "11", "sbi": "2", "sbi_2": "2", "sarea": "大安區", "mday": "2022-05-24 14:48:38", "lat": "25.02253", "lng": "121.54326", "ar": "復興南路二段342號", "bemp": "9", "bemp_2": "9", "act": "1", "ub_tyope2_0": 2.0, "ub_tyope1_0": 0.0, "ub_time0": 0, "ub_time5": 5}, "geometry": {"coordinates": [121.54326, 25.02253]}}, {"properties": {"sno": "500101008", "sna": "YouBike2.0_新生南路三段52號前", "tot": "17", "sbi": "2", "sbi_2": "2", "sarea": "大安區", "mday": "2022-05-24 15:28:38", "lat": "25.02112", "lng": "121.53407", "ar": "新生南路三段52號", "bemp": "15", "bemp_2": "15", "act": "1", "ub_tyope2_0": 2.0, "ub_tyope1_0": 0.0, "ub_time0": 0, "ub_time5": 5}, "geometry": {"coordinates": [121.53407, 25.02112]}}, {"properties": {"sno": "500101009", "sna": "YouBike2.0_新生南路三段66號前", "tot": "16", "sbi": "2", "sbi_2": "2", "sarea": "大安區", "mday": "2022-05-24 15:00:23", "lat": "25.01976", "lng": "121.53384", "ar": "新生南路三段66號東側", "bemp": "14", "bemp_2": "14", "act": "1", "ub_tyope2_0": 2.0, "ub_tyope1_0": 0.0, "ub_time0": 0, "ub_time5": 5}, "geometry": {"coordinates": [121.53384, 25.01976]}}, {"properties": {"sno": "500101010", "sna": "YouBike2.0_新生南路三段82號前", "tot": "20", "sbi": "3", "sbi_2": "2", "sarea": "大安區", "mday": "2022-05-24 15:20:39", "lat": "25.01894", "lng": "121.53361", "ar": "新生南路三段82號", "bemp": "17", "bemp_2": "18", "act": "1", "ub_tyope2_0": 2.0, "ub_tyope1_0": 0.0, "ub_time0": 0, "ub_time5": 5}, "geometry": {"coordinates": [121.53361, 25.01894]}}, {"properties": {"sno": "500101012", "sna": "YouBike2.0_辛亥路一段30號前", "tot": "8", "sbi": "1", "sbi_2": "1", "sarea": "大安區", "mday": "2022-05-24 15:21:23", "lat": "25.01986", "lng": "121.52982", "ar": "辛亥路一段30號", "bemp": "7", "bemp_2": "7", "act": "1", "ub_tyope2_0": 2.0, "ub_tyope1_0": 0.0, "ub_time0": 0, "ub_time5": 5}, "geometry": {"coordinates": [121.52982, 25.01986]}}, {"properties": {"sno": "500101013", "sna": "YouBike2.0_和平復興路口西北側", "tot": "9", "sbi": "0", "sbi_2": "1", "sarea": "大安區", "mday": "2022-05-24 14:58:03", "lat": "25.02543", "lng": "121.54332", "ar": "復興南路二段236號", "bemp": "9", "bemp_2": "8", "act": "1", "ub_tyope2_0": 2.0, "ub_tyope1_0": 0.0, "ub_time0": 0, "ub_time5": 5}, "geometry": {"coordinates": [121.54332, 25.02543]}}, {"properties": {"sno": "500101014", "sna": "YouBike2.0_羅斯福路三段311號前", "tot": "11", "sbi": "3", "sbi_2": "4", "sarea": "大安區", "mday": "2022-05-24 14:56:11", "lat": "25.01717", "lng": "121.53202", "ar": "羅斯福路三段311號", "bemp": "8", "bemp_2": "7", "act": "1", "ub_tyope2_0": 2.0, "ub_tyope1_0": 0.0, "ub_time0": 0, "ub_time5": 5}, "geometry": {"coordinates": [121.53202, 25.01717]}}, {"properties": {"sno": "500101015", "sna": "YouBike2.0_大安運動中心停車場", "tot": "14", "sbi": "1", "sbi_2": "2", "sarea": "大安區", "mday": "2022-05-24 15:27:37", "lat": "25.020348", "lng": "121.546446", "ar": "敦南街76巷28號", "bemp": "13", "bemp_2": "12", "act": "1", "ub_tyope2_0": 2.0, "ub_tyope1_0": 0.0, "ub_time0": 0, "ub_time5": 5}, "geometry": {"coordinates": [121.546446, 25.020348]}}, {"properties": {"sno": "500101016", "sna": "YouBike2.0_羅斯福路三段245號前", "tot": "8", "sbi": "2", "sbi_2": "3", "sarea": "大安區", "mday": "2022-05-24 15:14:37", "lat": "25.01927", "lng": "121.52989", "ar": "羅斯福路三段245號", "bemp": "6", "bemp_2": "5", "act": "1", "ub_tyope2_0": 2.0, "ub_tyope1_0": 0.0, "ub_time0": 0, "ub_time5": 5}, "geometry": {"coordinates": [121.52989, 25.01927]}}, {"properties": {"sno": "500101017", "sna": "YouBike2.0_羅斯福路三段269巷5號前", "tot": "10", "sbi": "0", "sbi_2": "1", "sarea": "大安區", "mday": "2022-05-03 16:02:13", "lat": "25.01913", "lng": "121.53079", "ar": "羅斯福路三段269巷5號", "bemp": "10", "bemp_2": "9", "act": "0", "ub_tyope2_0": 2.0, "ub_tyope1_0": 0.0, "ub_time0": 0, "ub_time5": 5}, "geometry": {"coordinates": [121.53079, 25.01913]}}, {"properties": {"sno": "500101018", "sna": "YouBike2.0_溫州公園", "tot": "5", "sbi": "1", "sbi_2": "1", "sarea": "大安區", "mday": "2022-05-24 14:45:38", "lat": "25.01895", "lng": "121.53156", "ar": "羅斯福路三段283巷11號", "bemp": "4", "bemp_2": "4", "act": "1", "ub_tyope2_0": 2.0, "ub_tyope1_0": 0.0, "ub_time0": 0, "ub_time5": 5}, "geometry": {"coordinates": [121.53156, 25.01895]}}, {"properties": {"sno": "500101019", "sna": "YouBike2.0_和平臥龍街口", "tot": "15", "sbi": "13", "sbi_2": "14", "sarea": "大安區", "mday": "2022-05-24 13:44:38", "lat": "25.024461", "lng": "121.546705", "ar": "臥龍街1號", "bemp": "2", "bemp_2": "1", "act": "1", "ub_tyope2_0": 2.0, "ub_tyope1_0": 0.0, "ub_time0": 0, "ub_time5": 5}, "geometry": {"coordinates": [121.546705, 25.024461]}}, {"properties": {"sno": "500101020", "sna": "YouBike2.0_溫州停車場", "tot": "5", "sbi": "0", "sbi_2": "1", "sarea": "大安區", "mday": "2022-05-24 14:00:17", "lat": "25.02093", "lng": "121.5331", "ar": "新生南路三段54巷/溫州街口", "bemp": "5", "bemp_2": "4", "act": "1", "ub_tyope2_0": 2.0, "ub_tyope1_0": 0.0, "ub_time0": 0, "ub_time5": 5}, "geometry": {"coordinates": [121.5331, 25.02093]}}, {"properties": {"sno": "500101021", "sna": "YouBike2.0_銘傳國小側門", "tot": "7", "sbi": "1", "sbi_2": "1", "sarea": "大安區", "mday": "2022-05-24 14:55:09", "lat": "25.01385", "lng": "121.53549", "ar": "羅斯福路四段21號旁天橋下", "bemp": "6", "bemp_2": "6", "act": "1", "ub_tyope2_0": 2.0, "ub_tyope1_0": 0.0, "ub_time0": 0, "ub_time5": 5}, "geometry": {"coordinates": [121.53549, 25.01385]}}, {"properties": {"sno": "500101022", "sna": "YouBike2.0_捷運公館站(2號出口)", "tot": "99", "sbi": "13", "sbi_2": "10", "sarea": "大安區", "mday": "2022-05-24 15:33:11", "lat": "25.01491", "lng": "121.53438", "ar": "捷運公館站(2號出口)外側", "bemp": "86", "bemp_2": "89", "act": "1", "ub_tyope2_0": 2.0, "ub_tyope1_0": 0.0, "ub_time0": 0, "ub_time5": 5}, "geometry": {"coordinates": [121.53438, 25.01491]}}, {"properties": {"sno": "500101023", "sna": "YouBike2.0_第二學生活動中心", "tot": "27", "sbi": "10", "sbi_2": "14", "sarea": "大安區", "mday": "2022-05-24 15:24:11", "lat": "25.01244", "lng": "121.53661", "ar": "羅斯福路四段107號(西南側)", "bemp": "16", "bemp_2": "13", "act": "1", "ub_tyope2_0": 2.0, "ub_tyope1_0": 0.0, "ub_time0": 0, "ub_time5": 5}, "geometry": {"coordinates": [121.53661, 25.01244]}}, {"properties": {"sno": "500101024", "sna": "YouBike2.0_臺灣科技大學正門", "tot": "30", "sbi": "18", "sbi_2": "15", "sarea": "大安區", "mday": "2022-05-24 14:32:37", "lat": "25.01451", "lng": "121.54142", "ar": "基隆路四段43號(臺灣科技大學正門旁小側門靠田徑場)", "bemp": "12", "bemp_2": "15", "act": "1", "ub_tyope2_0": 2.0, "ub_tyope1_0": 0.0, "ub_time0": 0, "ub_time5": 5}, "geometry": {"coordinates": [121.54142, 25.01451]}}, {"properties": {"sno": "500101025", "sna": "YouBike2.0_臺灣科技大學側門", "tot": "35", "sbi": "19", "sbi_2": "25", "sarea": "大安區", "mday": "2022-05-24 15:06:11", "lat": "25.01295", "lng": "121.53973", "ar": "基隆路四段73巷與基隆路口", "bemp": "12", "bemp_2": "10", "act": "1", "ub_tyope2_0": 2.0, "ub_tyope1_0": 0.0, "ub_time0": 0, "ub_time5": 5}, "geometry": {"coordinates": [121.53973, 25.01295]}}, {"properties": {"sno": "500101026", "sna": "YouBike2.0_公館公園", "tot": "15", "sbi": "14", "sbi_2": "14", "sarea": "大安區", "mday": "2022-05-24 12:40:11", "lat": "25.01137", "lng": "121.54062", "ar": "羅斯福路四段113巷基隆路四段41巷口", "bemp": "1", "bemp_2": "1", "act": "1", "ub_tyope2_0": 2.0, "ub_tyope1_0": 0.0, "ub_time0": 0, "ub_time5": 5}, "geometry": {"coordinates": [121.54062, 25.01137]}}, {"properties": {"sno": "500101027", "sna": "YouBike2.0_臺灣科技大學後門", "tot": "39", "sbi": "18", "sbi_2": "20", "sarea": "大安區", "mday": "2022-05-24 15:25:12", "lat": "25.01182", "lng": "121.54165", "ar": "基隆路四段41巷68弄臺科帆船大樓旁", "bemp": "21", "bemp_2": "19", "act": "1", "ub_tyope2_0": 2.0, "ub_tyope1_0": 0.0, "ub_time0": 0, "ub_time5": 5}, "geometry": {"coordinates": [121.54165, 25.01182]}}, {"properties": {"sno": "500101028", "sna": "YouBike2.0_臺大醫學院附設癌醫中心", "tot": "20", "sbi": "14", "sbi_2": "18", "sarea": "大安區", "mday": "2022-05-24 15:06:11", "lat": "25.01426", "lng": "121.54382", "ar": "基隆路三段155巷57號西側", "bemp": "2", "bemp_2": "2", "act": "1", "ub_tyope2_0": 2.0, "ub_tyope1_0": 0.0, "ub_time0": 0, "ub_time5": 5}, "geometry": {"coordinates": [121.54382, 25.01426]}}, {"properties": {"sno": "500101029", "sna": "YouBike2.0_臺大環研大樓", "tot": "15", "sbi": "15", "sbi_2": "14", "sarea": "大安區", "mday": "2022-05-24 14:12:04", "lat": "25.01234", "lng": "121.54503", "ar": "芳蘭路/基隆路三段155巷口", "bemp": "0", "bemp_2": "1", "act": "1", "ub_tyope2_0": 2.0, "ub_tyope1_0": 0.0, "ub_time0": 0, "ub_time5": 5}, "geometry": {"coordinates": [121.54503, 25.01234]}}, {"properties": {"sno": "500101030", "sna": "YouBike2.0_臺大永齡生醫工程館", "tot": "34", "sbi": "19", "sbi_2": "17", "sarea": "大安區", "mday": "2022-05-24 15:19:37", "lat": "25.0136", "lng": "121.54656", "ar": "芳蘭路51號西北側", "bemp": "15", "bemp_2": "17", "act": "1", "ub_tyope2_0": 2.0, "ub_tyope1_0": 0.0, "ub_time0": 0, "ub_time5": 5}, "geometry": {"coordinates": [121.54656, 25.0136]}}, {"properties": {"sno": "500101031", "sna": "YouBike2.0_臺大男七舍前", "tot": "20", "sbi": "5", "sbi_2": "6", "sarea": "大安區", "mday": "2022-05-24 15:31:12", "lat": "25.01537", "lng": "121.54698", "ar": "長興街/長興街80巷口西側", "bemp": "15", "bemp_2": "14", "act": "1", "ub_tyope2_0": 2.0, "ub_tyope1_0": 0.0, "ub_time0": 0, "ub_time5": 5}, "geometry": {"coordinates": [121.54698, 25.01537]}}, {"properties": {"sno": "500101032", "sna": "YouBike2.0_臺大男一舍前", "tot": "61", "sbi": "28", "sbi_2": "31", "sarea": "大安區", "mday": "2022-05-24 15:26:37", "lat": "25.01637", "lng": "121.54535", "ar": "長興街50號西北側", "bemp": "33", "bemp_2": "30", "act": "1", "ub_tyope2_0": 2.0, "ub_tyope1_0": 0.0, "ub_time0": 0, "ub_time5": 5}, "geometry": {"coordinates": [121.54535, 25.01637]}}, {"properties": {"sno": "500101033", "sna": "YouBike2.0_臺大男六舍前", "tot": "46", "sbi": "15", "sbi_2": "14", "sarea": "大安區", "mday": "2022-05-24 14:56:11", "lat": "25.01664", "lng": "121.5452", "ar": "大安區長興街31號", "bemp": "30", "bemp_2": "32", "act": "1", "ub_tyope2_0": 2.0, "ub_tyope1_0": 0.0, "ub_time0": 0, "ub_time5": 5}, "geometry": {"coordinates": [121.5452, 25.01664]}}, {"properties": {"sno": "500101034", "sna": "YouBike2.0_臺大動物醫院前", "tot": "18", "sbi": "7", "sbi_2": "6", "sarea": "大安區", "mday": "2022-05-24 15:20:39", "lat": "25.01576", "lng": "121.54291", "ar": "基隆路三段155巷/基隆路四段口", "bemp": "11", "bemp_2": "12", "act": "1", "ub_tyope2_0": 2.0, "ub_tyope1_0": 0.0, "ub_time0": 0, "ub_time5": 5}, "geometry": {"coordinates": [121.54291, 25.01576]}}, {"properties": {"sno": "500101035", "sna": "YouBike2.0_臺大土木研究大樓前", "tot": "11", "sbi": "7", "sbi_2": "8", "sarea": "大安區", "mday": "2022-05-24 15:18:38", "lat": "25.01787", "lng": "121.5476", "ar": "辛亥路三段188號", "bemp": "4", "bemp_2": "3", "act": "1", "ub_tyope2_0": 2.0, "ub_tyope1_0": 0.0, "ub_time0": 0, "ub_time5": 5}, "geometry": {"coordinates": [121.5476, 25.01787]}}, {"properties": {"sno": "500101036", "sna": "YouBike2.0_臺大萬才館前", "tot": "20", "sbi": "16", "sbi_2": "14", "sarea": "大安區", "mday": "2022-05-24 15:26:37", "lat": "25.02032", "lng": "121.54497", "ar": "臺大萬才館北側", "bemp": "4", "bemp_2": "6", "act": "1", "ub_tyope2_0": 2.0, "ub_tyope1_0": 0.0, "ub_time0": 0, "ub_time5": 5}, "geometry": {"coordinates": [121.54497, 25.02032]}}, {"properties": {"sno": "500101037", "sna": "YouBike2.0_臺大國青大樓宿舍前", "tot": "20", "sbi": "8", "sbi_2": "6", "sarea": "大安區", "mday": "2022-05-24 15:11:11", "lat": "25.02076", "lng": "121.54432", "ar": "辛亥路三段30號西北側", "bemp": "12", "bemp_2": "14", "act": "1", "ub_tyope2_0": 2.0, "ub_tyope1_0": 0.0, "ub_time0": 0, "ub_time5": 5}, "geometry": {"coordinates": [121.54432, 25.02076]}}, {"properties": {"sno": "500101038", "sna": "YouBike2.0_臺大社科院圖書館前", "tot": "27", "sbi": "11", "sbi_2": "14", "sarea": "大安區", "mday": "2022-05-24 15:12:10", "lat": "25.02101", "lng": "121.54284", "ar": "辛亥路與復興南路口西南側", "bemp": "16", "bemp_2": "13", "act": "1", "ub_tyope2_0": 2.0, "ub_tyope1_0": 0.0, "ub_time0": 0, "ub_time5": 5}, "geometry": {"coordinates": [121.54284, 25.02101]}}, {"properties": {"sno": "500101039", "sna": "YouBike2.0_臺大法人語言訓練中心前", "tot": "28", "sbi": "14", "sbi_2": "14", "sarea": "大安區", "mday": "2022-05-24 15:33:38", "lat": "25.02104", "lng": "121.54081", "ar": "臺大法人語言訓練中心北側", "bemp": "14", "bemp_2": "14", "act": "1", "ub_tyope2_0": 2.0, "ub_tyope1_0": 0.0, "ub_time0": 0, "ub_time5": 5}, "geometry": {"coordinates": [121.54081, 25.02104]}}, {"properties": {"sno": "500101040", "sna": "YouBike2.0_臺大綜合體育館停車場前", "tot": "25", "sbi": "4", "sbi_2": "3", "sarea": "大安區", "mday": "2022-05-24 15:03:11", "lat": "25.0222", "lng": "121.53626", "ar": "臺大綜合體育館北側", "bemp": "21", "bemp_2": "22", "act": "1", "ub_tyope2_0": 2.0, "ub_tyope1_0": 0.0, "ub_time0": 0, "ub_time5": 5}, "geometry": {"coordinates": [121.53626, 25.0222]}}, {"properties": {"sno": "500101041", "sna": "YouBike2.0_辛亥新生路口東南側", "tot": "21", "sbi": "2", "sbi_2": "3", "sarea": "大安區", "mday": "2022-05-24 15:15:12", "lat": "25.02218", "lng": "121.53474", "ar": "辛亥新生路口東南側", "bemp": "19", "bemp_2": "18", "act": "1", "ub_tyope2_0": 2.0, "ub_tyope1_0": 0.0, "ub_time0": 0, "ub_time5": 5}, "geometry": {"coordinates": [121.53474, 25.02218]}}, {"properties": {"sno": "500101042", "sna": "YouBike2.0_基隆長興路口東側", "tot": "15", "sbi": "3", "sbi_2": "2", "sarea": "大安區", "mday": "2022-05-24 15:33:38", "lat": "25.01727", "lng": "121.54471", "ar": "基隆長興路口東側", "bemp": "12", "bemp_2": "13", "act": "1", "ub_tyope2_0": 2.0, "ub_tyope1_0": 0.0, "ub_time0": 0, "ub_time5": 5}, "geometry": {"coordinates": [121.54471, 25.01727]}}, {"properties": {"sno": "500101091", "sna": "YouBike2.0_國北教大側門南側", "tot": "25", "sbi": "7", "sbi_2": "8", "sarea": "大安區", "mday": "2022-05-24 15:09:11", "lat": "25.022864", "lng": "121.546622", "ar": "敦南街51號", "bemp": "18", "bemp_2": "17", "act": "1", "ub_tyope2_0": 2.0, "ub_tyope1_0": 0.0, "ub_time0": 0, "ub_time5": 5}, "geometry": {"coordinates": [121.546622, 25.022864]}}, {"properties": {"sno": "500101092", "sna": "YouBike2.0_和平實小東北側", "tot": "13", "sbi": "8", "sbi_2": "10", "sarea": "大安區", "mday": "2022-05-24 12:09:11", "lat": "25.021641", "lng": "121.54704", "ar": "敦南街73號", "bemp": "5", "bemp_2": "3", "act": "1", "ub_tyope2_0": 2.0, "ub_tyope1_0": 0.0, "ub_time0": 0, "ub_time5": 5}, "geometry": {"coordinates": [121.54704, 25.021641]}}, {"properties": {"sno": "500101093", "sna": "YouBike2.0_大安區健康服務中心", "tot": "15", "sbi": "3", "sbi_2": "2", "sarea": "大安區", "mday": "2022-05-24 14:25:12", "lat": "25.021469", "lng": "121.544069", "ar": "辛亥路三段15號", "bemp": "12", "bemp_2": "13", "act": "1", "ub_tyope2_0": 2.0, "ub_tyope1_0": 0.0, "ub_time0": 0, "ub_time5": 5}, "geometry": {"coordinates": [121.544069, 25.021469]}}, {"properties": {"sno": "500101094", "sna": "YouBike2.0_辛亥泰順街口", "tot": "20", "sbi": "5", "sbi_2": "6", "sarea": "大安區", "mday": "2022-05-24 15:04:38", "lat": "25.02193", "lng": "121.53165", "ar": "辛亥泰順街口東南側", "bemp": "15", "bemp_2": "14", "act": "1", "ub_tyope2_0": 2.0, "ub_tyope1_0": 0.0, "ub_time0": 0, "ub_time5": 5}, "geometry": {"coordinates": [121.53165, 25.02193]}}, {"properties": {"sno": "500101095", "sna": "YouBike2.0_芳和國中", "tot": "28", "sbi": "0", "sbi_2": "3", "sarea": "大安區", "mday": "2022-05-24 12:56:03", "lat": "25.0189", "lng": "121.55013", "ar": "臥龍街170號(前)", "bemp": "28", "bemp_2": "25", "act": "1", "ub_tyope2_0": 2.0, "ub_tyope1_0": 0.0, "ub_time0": 0, "ub_time5": 5}, "geometry": {"coordinates": [121.55013, 25.0189]}}, {"properties": {"sno": "500101097", "sna": "YouBike2.0_臥龍樂業街口", "tot": "36", "sbi": "19", "sbi_2": "18", "sarea": "大安區", "mday": "2022-05-24 15:08:37", "lat": "25.01856", "lng": "121.55558", "ar": "臥龍街234-2號", "bemp": "17", "bemp_2": "18", "act": "1", "ub_tyope2_0": 2.0, "ub_tyope1_0": 0.0, "ub_time0": 0, "ub_time5": 5}, "geometry": {"coordinates": [121.55558, 25.01856]}}, {"properties": {"sno": "500101098", "sna": "YouBike2.0_臥龍公園", "tot": "14", "sbi": "1", "sbi_2": "2", "sarea": "大安區", "mday": "2022-05-24 13:26:12", "lat": "25.01623", "lng": "121.55037", "ar": "辛亥路三段223號西側", "bemp": "13", "bemp_2": "12", "act": "1", "ub_tyope2_0": 2.0, "ub_tyope1_0": 0.0, "ub_time0": 0, "ub_time5": 5}, "geometry": {"coordinates": [121.55037, 25.01623]}}, {"properties": {"sno": "500101099", "sna": "YouBike2.0_嘉興公園", "tot": "44", "sbi": "3", "sbi_2": "5", "sarea": "大安區", "mday": "2022-05-24 15:32:11", "lat": "25.021", "lng": "121.55211", "ar": "樂業街101巷3號西北側", "bemp": "41", "bemp_2": "39", "act": "1", "ub_tyope2_0": 2.0, "ub_tyope1_0": 0.0, "ub_time0": 0, "ub_time5": 5}, "geometry": {"coordinates": [121.55211, 25.021]}}, {"properties": {"sno": "500101100", "sna": "YouBike2.0_捷運麟光站(2號出口)", "tot": "25", "sbi": "1", "sbi_2": "3", "sarea": "大安區", "mday": "2022-05-24 15:18:12", "lat": "25.0181", "lng": "121.55929", "ar": "和平東路三段420號東北側", "bemp": "24", "bemp_2": "22", "act": "1", "ub_tyope2_0": 2.0, "ub_tyope1_0": 0.0, "ub_time0": 0, "ub_time5": 5}, "geometry": {"coordinates": [121.55929, 25.0181]}}, {"properties": {"sno": "500101101", "sna": "YouBike2.0_捷運六張犁站", "tot": "30", "sbi": "1", "sbi_2": "3", "sarea": "大安區", "mday": "2022-05-24 15:32:04", "lat": "25.02397", "lng": "121.55266", "ar": "和平東路三段410號", "bemp": "29", "bemp_2": "27", "act": "1", "ub_tyope2_0": 2.0, "ub_tyope1_0": 0.0, "ub_time0": 0, "ub_time5": 5}, "geometry": {"coordinates": [121.55266, 25.02397]}}, {"properties": {"sno": "500101102", "sna": "YouBike2.0_喬治工商", "tot": "26", "sbi": "4", "sbi_2": "3", "sarea": "大安區", "mday": "2022-05-24 14:50:20", "lat": "25.02705", "lng": "121.55551", "ar": "基隆路二段166號", "bemp": "22", "bemp_2": "23", "act": "1", "ub_tyope2_0": 2.0, "ub_tyope1_0": 0.0, "ub_time0": 0, "ub_time5": 5}, "geometry": {"coordinates": [121.55551, 25.02705]}}, {"properties": {"sno": "500101103", "sna": "YouBike2.0_法治公園", "tot": "15", "sbi": "0", "sbi_2": "2", "sarea": "大安區", "mday": "2022-05-24 15:21:03", "lat": "25.02694", "lng": "121.55325", "ar": "通化街189號西側", "bemp": "15", "bemp_2": "13", "act": "1", "ub_tyope2_0": 2.0, "ub_tyope1_0": 0.0, "ub_time0": 0, "ub_time5": 5}, "geometry": {"coordinates": [121.55325, 25.02694]}}, {"properties": {"sno": "500101104", "sna": "YouBike2.0_捷運臺電大樓站(2號出口)", "tot": "14", "sbi": "0", "sbi_2": "2", "sarea": "大安區", "mday": "2022-05-24 14:55:09", "lat": "25.02021", "lng": "121.52942", "ar": "辛亥路一段/羅斯福路三段口北側(辛亥路側)", "bemp": "14", "bemp_2": "12", "act": "1", "ub_tyope2_0": 2.0, "ub_tyope1_0": 0.0, "ub_time0": 0, "ub_time5": 5}, "geometry": {"coordinates": [121.52942, 25.02021]}}, {"properties": {"sno": "500101105", "sna": "YouBike2.0_和平金山路口", "tot": "32", "sbi": "14", "sbi_2": "16", "sarea": "大安區", "mday": "2022-05-24 15:27:37", "lat": "25.02669", "lng": "121.52529", "ar": "和平東路一段/金山南路二段西南側", "bemp": "18", "bemp_2": "16", "act": "1", "ub_tyope2_0": 2.0, "ub_tyope1_0": 0.0, "ub_time0": 0, "ub_time5": 5}, "geometry": {"coordinates": [121.52529, 25.02669]}}, {"properties": {"sno": "500101107", "sna": "YouBike2.0_和平龍泉街口", "tot": "17", "sbi": "10", "sbi_2": "9", "sarea": "大安區", "mday": "2022-05-24 15:31:38", "lat": "25.02638", "lng": "121.52971", "ar": "和平東路一段/龍泉街口西南側", "bemp": "7", "bemp_2": "8", "act": "1", "ub_tyope2_0": 2.0, "ub_tyope1_0": 0.0, "ub_time0": 0, "ub_time5": 5}, "geometry": {"coordinates": [121.52971, 25.02638]}}, {"properties": {"sno": "500101108", "sna": "YouBike2.0_和平泰順街口", "tot": "9", "sbi": "9", "sbi_2": "9", "sarea": "大安區", "mday": "2022-05-24 14:57:04", "lat": "25.02621", "lng": "121.53171", "ar": "和平東路一段/泰順街口東南側", "bemp": "0", "bemp_2": "0", "act": "1", "ub_tyope2_0": 2.0, "ub_tyope1_0": 0.0, "ub_time0": 0, "ub_time5": 5}, "geometry": {"coordinates": [121.53171, 25.02621]}}, {"properties": {"sno": "500101109", "sna": "YouBike2.0_臺灣師範大學(圖書館)", "tot": "33", "sbi": "16", "sbi_2": "17", "sarea": "大安區", "mday": "2022-05-24 15:14:37", "lat": "25.0266", "lng": "121.52973", "ar": "和平東路一段129號前", "bemp": "17", "bemp_2": "16", "act": "1", "ub_tyope2_0": 2.0, "ub_tyope1_0": 0.0, "ub_time0": 0, "ub_time5": 5}, "geometry": {"coordinates": [121.52973, 25.0266]}}, {"properties": {"sno": "500101110", "sna": "YouBike2.0_捷運古亭站(6號出口)", "tot": "15", "sbi": "0", "sbi_2": "2", "sarea": "大安區", "mday": "2022-05-15 00:38:03", "lat": "25.0276", "lng": "121.52217", "ar": "羅斯福路二段41號前", "bemp": "15", "bemp_2": "13", "act": "0", "ub_tyope2_0": 2.0, "ub_tyope1_0": 0.0, "ub_time0": 0, "ub_time5": 5}, "geometry": {"coordinates": [121.52217, 25.0276]}}, {"properties": {"sno": "500101111", "sna": "YouBike2.0_捷運古亭站(5號出口)", "tot": "14", "sbi": "12", "sbi_2": "13", "sarea": "大安區", "mday": "2022-05-24 15:25:12", "lat": "25.02715", "lng": "121.52293", "ar": "和平東路一段19號前", "bemp": "2", "bemp_2": "1", "act": "1", "ub_tyope2_0": 2.0, "ub_tyope1_0": 0.0, "ub_time0": 0, "ub_time5": 5}, "geometry": {"coordinates": [121.52293, 25.02715]}}, {"properties": {"sno": "500101113", "sna": "YouBike2.0_臺北市立圖書館(總館)", "tot": "32", "sbi": "11", "sbi_2": "10", "sarea": "大安區", "mday": "2022-05-24 15:06:11", "lat": "25.02895", "lng": "121.5379", "ar": "建國南路二段/建國南路二段151巷(橋下空間)", "bemp": "21", "bemp_2": "22", "act": "1", "ub_tyope2_0": 2.0, "ub_tyope1_0": 0.0, "ub_time0": 0, "ub_time5": 5}, "geometry": {"coordinates": [121.5379, 25.02895]}}, {"properties": {"sno": "500101114", "sna": "YouBike2.0_新生和平路口東北側", "tot": "35", "sbi": "13", "sbi_2": "11", "sarea": "大安區", "mday": "2022-05-24 14:58:37", "lat": "25.02657", "lng": "121.53515", "ar": "新生南路二段與和平東路二段口東北側", "bemp": "22", "bemp_2": "24", "act": "1", "ub_tyope2_0": 2.0, "ub_tyope1_0": 0.0, "ub_time0": 0, "ub_time5": 5}, "geometry": {"coordinates": [121.53515, 25.02657]}}, {"properties": {"sno": "500101115", "sna": "YouBike2.0_建國和平路口西北側", "tot": "41", "sbi": "23", "sbi_2": "21", "sarea": "大安區", "mday": "2022-05-24 15:25:37", "lat": "25.02606", "lng": "121.53738", "ar": "建國南路二段與和平東路二段口西北側", "bemp": "18", "bemp_2": "20", "act": "1", "ub_tyope2_0": 2.0, "ub_tyope1_0": 0.0, "ub_time0": 0, "ub_time5": 5}, "geometry": {"coordinates": [121.53738, 25.02606]}}, {"properties": {"sno": "500101116", "sna": "YouBike2.0_金華公園", "tot": "23", "sbi": "17", "sbi_2": "17", "sarea": "大安區", "mday": "2022-05-24 15:03:11", "lat": "25.02984", "lng": "121.53107", "ar": "金華街249號對面", "bemp": "6", "bemp_2": "6", "act": "1", "ub_tyope2_0": 2.0, "ub_tyope1_0": 0.0, "ub_time0": 0, "ub_time5": 5}, "geometry": {"coordinates": [121.53107, 25.02984]}}, {"properties": {"sno": "500101117", "sna": "YouBike2.0_捷運東門站(3號出口)", "tot": "15", "sbi": "8", "sbi_2": "8", "sarea": "大安區", "mday": "2022-05-24 14:59:11", "lat": "25.03383", "lng": "121.52815", "ar": "信義路二段128號前", "bemp": "7", "bemp_2": "7", "act": "1", "ub_tyope2_0": 2.0, "ub_tyope1_0": 0.0, "ub_time0": 0, "ub_time5": 5}, "geometry": {"coordinates": [121.52815, 25.03383]}}, {"properties": {"sno": "500101118", "sna": "YouBike2.0_金甌女中", "tot": "12", "sbi": "0", "sbi_2": "2", "sarea": "大安區", "mday": "2022-05-24 14:52:04", "lat": "25.03519", "lng": "121.5245", "ar": "信義路二段與杭州南路二段東南側", "bemp": "12", "bemp_2": "10", "act": "1", "ub_tyope2_0": 2.0, "ub_tyope1_0": 0.0, "ub_time0": 0, "ub_time5": 5}, "geometry": {"coordinates": [121.5245, 25.03519]}}, {"properties": {"sno": "500101119", "sna": "YouBike2.0_金杭公園", "tot": "20", "sbi": "7", "sbi_2": "6", "sarea": "大安區", "mday": "2022-05-24 11:51:37", "lat": "25.03325", "lng": "121.52436", "ar": "愛國東路21巷與杭州南路二段25巷口東南側", "bemp": "13", "bemp_2": "14", "act": "1", "ub_tyope2_0": 2.0, "ub_tyope1_0": 0.0, "ub_time0": 0, "ub_time5": 5}, "geometry": {"coordinates": [121.52436, 25.03325]}}, {"properties": {"sno": "500101120", "sna": "YouBike2.0_愛國金山路口", "tot": "33", "sbi": "21", "sbi_2": "24", "sarea": "大安區", "mday": "2022-05-24 15:22:11", "lat": "25.03164", "lng": "121.52661", "ar": "愛國東路與杭州南路二段口西南側", "bemp": "12", "bemp_2": "9", "act": "1", "ub_tyope2_0": 2.0, "ub_tyope1_0": 0.0, "ub_time0": 0, "ub_time5": 5}, "geometry": {"coordinates": [121.52661, 25.03164]}}, {"properties": {"sno": "500101122", "sna": "YouBike2.0_敦化南路二段293巷口南側", "tot": "14", "sbi": "1", "sbi_2": "2", "sarea": "大安區", "mday": "2022-05-24 14:28:03", "lat": "25.0237", "lng": "121.54899", "ar": "敦化南路二段293巷口南側", "bemp": "13", "bemp_2": "12", "act": "1", "ub_tyope2_0": 2.0, "ub_tyope1_0": 0.0, "ub_time0": 0, "ub_time5": 5}, "geometry": {"coordinates": [121.54899, 25.0237]}}, {"properties": {"sno": "500101123", "sna": "YouBike2.0_敦化基隆路口", "tot": "32", "sbi": "26", "sbi_2": "29", "sarea": "大安區", "mday": "2022-05-24 15:26:30", "lat": "25.02215", "lng": "121.54839", "ar": "敦化南路二段218號", "bemp": "6", "bemp_2": "3", "act": "1", "ub_tyope2_0": 2.0, "ub_tyope1_0": 0.0, "ub_time0": 0, "ub_time5": 5}, "geometry": {"coordinates": [121.54839, 25.02215]}}, {"properties": {"sno": "500101124", "sna": "YouBike2.0_安和路二段181巷口", "tot": "17", "sbi": "13", "sbi_2": "12", "sarea": "大安區", "mday": "2022-05-24 15:03:37", "lat": "25.02721", "lng": "121.54988", "ar": "安和路二段185號", "bemp": "4", "bemp_2": "5", "act": "1", "ub_tyope2_0": 2.0, "ub_tyope1_0": 0.0, "ub_time0": 0, "ub_time5": 5}, "geometry": {"coordinates": [121.54988, 25.02721]}}, {"properties": {"sno": "500101125", "sna": "YouBike2.0_臨江街夜市(通化街101巷口)", "tot": "30", "sbi": "6", "sbi_2": "3", "sarea": "大安區", "mday": "2022-05-24 15:29:11", "lat": "25.02952", "lng": "121.55406", "ar": "通化街111號", "bemp": "24", "bemp_2": "27", "act": "1", "ub_tyope2_0": 2.0, "ub_tyope1_0": 0.0, "ub_time0": 0, "ub_time5": 5}, "geometry": {"coordinates": [121.55406, 25.02952]}}, {"properties": {"sno": "500101126", "sna": "YouBike2.0_臨江街夜市(基隆路)", "tot": "17", "sbi": "10", "sbi_2": "9", "sarea": "大安區", "mday": "2022-05-24 15:14:37", "lat": "25.02931", "lng": "121.55721", "ar": "基隆路二段108號", "bemp": "7", "bemp_2": "8", "act": "1", "ub_tyope2_0": 2.0, "ub_tyope1_0": 0.0, "ub_time0": 0, "ub_time5": 5}, "geometry": {"coordinates": [121.55721, 25.02931]}}, {"properties": {"sno": "500101127", "sna": "YouBike2.0_台北科技大學億光大樓", "tot": "46", "sbi": "39", "sbi_2": "42", "sarea": "大安區", "mday": "2022-05-24 14:43:38", "lat": "25.04177", "lng": "121.53833", "ar": "忠孝東路三段81號", "bemp": "7", "bemp_2": "4", "act": "1", "ub_tyope2_0": 2.0, "ub_tyope1_0": 0.0, "ub_time0": 0, "ub_time5": 5}, "geometry": {"coordinates": [121.53833, 25.04177]}}, {"properties": {"sno": "500101128", "sna": "YouBike2.0_新生南路一段119巷口", "tot": "33", "sbi": "18", "sbi_2": "17", "sarea": "大安區", "mday": "2022-05-24 15:05:38", "lat": "25.04003", "lng": "121.53299", "ar": "新生南路一段113號", "bemp": "15", "bemp_2": "16", "act": "1", "ub_tyope2_0": 2.0, "ub_tyope1_0": 0.0, "ub_time0": 0, "ub_time5": 5}, "geometry": {"coordinates": [121.53299, 25.04003]}}, {"properties": {"sno": "500101129", "sna": "YouBike2.0_幸安國小(仁愛路)", "tot": "16", "sbi": "6", "sbi_2": "5", "sarea": "大安區", "mday": "2022-05-24 14:51:37", "lat": "25.03753", "lng": "121.53523", "ar": "仁愛路三段22號", "bemp": "10", "bemp_2": "11", "act": "1", "ub_tyope2_0": 2.0, "ub_tyope1_0": 0.0, "ub_time0": 0, "ub_time5": 5}, "geometry": {"coordinates": [121.53523, 25.03753]}}, {"properties": {"sno": "500101130", "sna": "YouBike2.0_民榮公園", "tot": "15", "sbi": "0", "sbi_2": "2", "sarea": "大安區", "mday": "2022-05-24 14:54:03", "lat": "25.03534", "lng": "121.5354", "ar": "建國南路一段304巷45號南側", "bemp": "15", "bemp_2": "13", "act": "1", "ub_tyope2_0": 2.0, "ub_tyope1_0": 0.0, "ub_time0": 0, "ub_time5": 5}, "geometry": {"coordinates": [121.5354, 25.03534]}}, {"properties": {"sno": "500101131", "sna": "YouBike2.0_復興南路1段340巷口", "tot": "38", "sbi": "30", "sbi_2": "27", "sarea": "大安區", "mday": "2022-05-24 15:24:11", "lat": "25.03701", "lng": "121.54348", "ar": "復興南路一段信義路三段147巷45弄口", "bemp": "8", "bemp_2": "11", "act": "1", "ub_tyope2_0": 2.0, "ub_tyope1_0": 0.0, "ub_time0": 0, "ub_time5": 5}, "geometry": {"coordinates": [121.54348, 25.03701]}}, {"properties": {"sno": "500101132", "sna": "YouBike2.0_建國濟南路口", "tot": "29", "sbi": "18", "sbi_2": "21", "sarea": "大安區", "mday": "2022-05-24 15:16:12", "lat": "25.03935", "lng": "121.53828", "ar": "建國南路一段/濟南路三段口(東南側)", "bemp": "11", "bemp_2": "8", "act": "1", "ub_tyope2_0": 2.0, "ub_tyope1_0": 0.0, "ub_time0": 0, "ub_time5": 5}, "geometry": {"coordinates": [121.53828, 25.03935]}}, {"properties": {"sno": "500101133", "sna": "YouBike2.0_捷運忠孝復興站(2號出口)", "tot": "58", "sbi": "10", "sbi_2": "6", "sarea": "大安區", "mday": "2022-05-24 15:14:37", "lat": "25.04035", "lng": "121.5436", "ar": "復興南路一段/仁愛路三段123巷13弄(西北側)", "bemp": "48", "bemp_2": "52", "act": "1", "ub_tyope2_0": 2.0, "ub_tyope1_0": 0.0, "ub_time0": 0, "ub_time5": 5}, "geometry": {"coordinates": [121.5436, 25.04035]}}, {"properties": {"sno": "500101134", "sna": "YouBike2.0_捷運大安站(4號出口)", "tot": "13", "sbi": "3", "sbi_2": "4", "sarea": "大安區", "mday": "2022-05-24 15:22:11", "lat": "25.0332", "lng": "121.5439", "ar": "信義路4段6號(前)", "bemp": "10", "bemp_2": "9", "act": "1", "ub_tyope2_0": 2.0, "ub_tyope1_0": 0.0, "ub_time0": 0, "ub_time5": 5}, "geometry": {"coordinates": [121.5439, 25.0332]}}, {"properties": {"sno": "500101135", "sna": "YouBike2.0_捷運大安站(2號出口)", "tot": "22", "sbi": "13", "sbi_2": "11", "sarea": "大安區", "mday": "2022-05-24 14:50:20", "lat": "25.03358", "lng": "121.54141", "ar": "信義路3段143號(前)", "bemp": "9", "bemp_2": "11", "act": "1", "ub_tyope2_0": 2.0, "ub_tyope1_0": 0.0, "ub_time0": 0, "ub_time5": 5}, "geometry": {"coordinates": [121.54141, 25.03358]}}, {"properties": {"sno": "500101136", "sna": "YouBike2.0_信義大安路口(信維大樓)", "tot": "12", "sbi": "5", "sbi_2": "6", "sarea": "大安區", "mday": "2022-05-24 15:28:38", "lat": "25.03317", "lng": "121.54639", "ar": "信義路四段74號(前)", "bemp": "7", "bemp_2": "6", "act": "1", "ub_tyope2_0": 2.0, "ub_tyope1_0": 0.0, "ub_time0": 0, "ub_time5": 5}, "geometry": {"coordinates": [121.54639, 25.03317]}}, {"properties": {"sno": "500101137", "sna": "YouBike2.0_龍門廣場", "tot": "50", "sbi": "18", "sbi_2": "35", "sarea": "大安區", "mday": "2022-05-24 14:58:11", "lat": "25.04092", "lng": "121.54825", "ar": "敦化南路一段與敦化南路一段236巷口", "bemp": "17", "bemp_2": "15", "act": "1", "ub_tyope2_0": 2.0, "ub_tyope1_0": 0.0, "ub_time0": 0, "ub_time5": 5}, "geometry": {"coordinates": [121.54825, 25.04092]}}, {"properties": {"sno": "500101138", "sna": "YouBike2.0_仁愛安和路口", "tot": "20", "sbi": "19", "sbi_2": "18", "sarea": "大安區", "mday": "2022-05-24 15:10:38", "lat": "25.03754", "lng": "121.55285", "ar": "仁愛路四段258號前", "bemp": "1", "bemp_2": "2", "act": "1", "ub_tyope2_0": 2.0, "ub_tyope1_0": 0.0, "ub_time0": 0, "ub_time5": 5}, "geometry": {"coordinates": [121.55285, 25.03754]}}, {"properties": {"sno": "500101139", "sna": "YouBike2.0_信義敦化路口", "tot": "42", "sbi": "25", "sbi_2": "21", "sarea": "大安區", "mday": "2022-05-24 15:19:11", "lat": "25.03333", "lng": "121.54977", "ar": "信義路四段155號前", "bemp": "17", "bemp_2": "21", "act": "1", "ub_tyope2_0": 2.0, "ub_tyope1_0": 0.0, "ub_time0": 0, "ub_time5": 5}, "geometry": {"coordinates": [121.54977, 25.03333]}}, {"properties": {"sno": "500101140", "sna": "YouBike2.0_仁愛國中", "tot": "25", "sbi": "12", "sbi_2": "13", "sarea": "大安區", "mday": "2022-05-24 12:24:37", "lat": "25.03706", "lng": "121.55166", "ar": "安和路一段75號(對面)", "bemp": "13", "bemp_2": "12", "act": "1", "ub_tyope2_0": 2.0, "ub_tyope1_0": 0.0, "ub_time0": 0, "ub_time5": 5}, "geometry": {"coordinates": [121.55166, 25.03706]}}, {"properties": {"sno": "500101141", "sna": "YouBike2.0_捷運信義安和站(2號出口)", "tot": "26", "sbi": "9", "sbi_2": "8", "sarea": "大安區", "mday": "2022-05-24 15:26:11", "lat": "25.03304", "lng": "121.55171", "ar": "信義路四段188號前", "bemp": "17", "bemp_2": "18", "act": "1", "ub_tyope2_0": 2.0, "ub_tyope1_0": 0.0, "ub_time0": 0, "ub_time5": 5}, "geometry": {"coordinates": [121.55171, 25.03304]}}, {"properties": {"sno": "500101142", "sna": "YouBike2.0_八德市場", "tot": "30", "sbi": "7", "sbi_2": "9", "sarea": "大安區", "mday": "2022-05-24 15:31:12", "lat": "25.04463", "lng": "121.53665", "ar": "市民大道三段170號", "bemp": "23", "bemp_2": "21", "act": "1", "ub_tyope2_0": 2.0, "ub_tyope1_0": 0.0, "ub_time0": 0, "ub_time5": 5}, "geometry": {"coordinates": [121.53665, 25.04463]}}, {"properties": {"sno": "500101143", "sna": "YouBike2.0_昌隆公園", "tot": "16", "sbi": "7", "sbi_2": "8", "sarea": "大安區", "mday": "2022-05-24 14:30:23", "lat": "25.04448", "lng": "121.53946", "ar": "市民大道三段206號西側", "bemp": "9", "bemp_2": "8", "act": "1", "ub_tyope2_0": 2.0, "ub_tyope1_0": 0.0, "ub_time0": 0, "ub_time5": 5}, "geometry": {"coordinates": [121.53946, 25.04448]}}, {"properties": {"sno": "500101144", "sna": "YouBike2.0_捷運大安森林公園站(2號出口)", "tot": "52", "sbi": "7", "sbi_2": "16", "sarea": "大安區", "mday": "2022-05-24 15:24:38", "lat": "25.03332", "lng": "121.53435", "ar": "捷運大安森林公園站(2號出口)西側", "bemp": "40", "bemp_2": "36", "act": "1", "ub_tyope2_0": 2.0, "ub_tyope1_0": 0.0, "ub_time0": 0, "ub_time5": 5}, "geometry": {"coordinates": [121.53435, 25.03332]}}, {"properties": {"sno": "500101145", "sna": "YouBike2.0_信義延吉街口", "tot": "15", "sbi": "12", "sbi_2": "11", "sarea": "大安區", "mday": "2022-05-24 15:18:38", "lat": "25.03318", "lng": "121.55725", "ar": "信義路四段353號", "bemp": "3", "bemp_2": "4", "act": "1", "ub_tyope2_0": 2.0, "ub_tyope1_0": 0.0, "ub_time0": 0, "ub_time5": 5}, "geometry": {"coordinates": [121.55725, 25.03318]}}, {"properties": {"sno": "500101146", "sna": "YouBike2.0_光信公園(光復南路456巷)", "tot": "15", "sbi": "8", "sbi_2": "8", "sarea": "大安區", "mday": "2022-05-24 14:40:37", "lat": "25.03513", "lng": "121.5561", "ar": "延吉街249號", "bemp": "7", "bemp_2": "7", "act": "1", "ub_tyope2_0": 2.0, "ub_tyope1_0": 0.0, "ub_time0": 0, "ub_time5": 5}, "geometry": {"coordinates": [121.5561, 25.03513]}}, {"properties": {"sno": "500101147", "sna": "YouBike2.0_僑安地下停車場(2號出口)東南側", "tot": "20", "sbi": "10", "sbi_2": "10", "sarea": "大安區", "mday": "2022-05-24 14:50:20", "lat": "25.0391", "lng": "121.5569", "ar": "光復南路290巷5號", "bemp": "10", "bemp_2": "10", "act": "1", "ub_tyope2_0": 2.0, "ub_tyope1_0": 0.0, "ub_time0": 0, "ub_time5": 5}, "geometry": {"coordinates": [121.5569, 25.0391]}}, {"properties": {"sno": "500101148", "sna": "YouBike2.0_建國南路一段279巷口", "tot": "32", "sbi": "1", "sbi_2": "4", "sarea": "大安區", "mday": "2022-05-24 14:32:11", "lat": "25.03635", "lng": "121.53833", "ar": "建國南路一段275號", "bemp": "31", "bemp_2": "28", "act": "1", "ub_tyope2_0": 2.0, "ub_tyope1_0": 0.0, "ub_time0": 0, "ub_time5": 5}, "geometry": {"coordinates": [121.53833, 25.03635]}}, {"properties": {"sno": "500101149", "sna": "YouBike2.0_捷運忠孝新生站(6號出口)", "tot": "15", "sbi": "3", "sbi_2": "2", "sarea": "大安區", "mday": "2022-05-24 12:45:37", "lat": "25.04091", "lng": "121.53295", "ar": "新生南路一段101號", "bemp": "12", "bemp_2": "13", "act": "1", "ub_tyope2_0": 2.0, "ub_tyope1_0": 0.0, "ub_time0": 0, "ub_time5": 5}, "geometry": {"coordinates": [121.53295, 25.04091]}}, {"properties": {"sno": "500101151", "sna": "YouBike2.0_大安高工", "tot": "23", "sbi": "5", "sbi_2": "7", "sarea": "大安區", "mday": "2022-05-24 15:23:03", "lat": "25.03126", "lng": "121.54339", "ar": "復興南路二段52號(前)", "bemp": "18", "bemp_2": "16", "act": "1", "ub_tyope2_0": 2.0, "ub_tyope1_0": 0.0, "ub_time0": 0, "ub_time5": 5}, "geometry": {"coordinates": [121.54339, 25.03126]}}, {"properties": {"sno": "500101152", "sna": "YouBike2.0_捷運忠孝新生站(3號出口)", "tot": "23", "sbi": "7", "sbi_2": "7", "sarea": "大安區", "mday": "2022-05-24 15:15:37", "lat": "25.04189", "lng": "121.53376", "ar": "忠孝東路三段與10巷口", "bemp": "16", "bemp_2": "16", "act": "1", "ub_tyope2_0": 2.0, "ub_tyope1_0": 0.0, "ub_time0": 0, "ub_time5": 5}, "geometry": {"coordinates": [121.53376, 25.04189]}}, {"properties": {"sno": "500101153", "sna": "YouBike2.0_瑠公公園", "tot": "20", "sbi": "10", "sbi_2": "10", "sarea": "大安區", "mday": "2022-05-24 15:01:12", "lat": "25.04201", "lng": "121.54612", "ar": "忠孝東路四段49巷4弄/大安路口", "bemp": "10", "bemp_2": "10", "act": "1", "ub_tyope2_0": 2.0, "ub_tyope1_0": 0.0, "ub_time0": 0, "ub_time5": 5}, "geometry": {"coordinates": [121.54612, 25.04201]}}, {"properties": {"sno": "500101154", "sna": "YouBike2.0_敦化市民路口", "tot": "25", "sbi": "17", "sbi_2": "18", "sarea": "大安區", "mday": "2022-05-24 15:03:37", "lat": "25.04405", "lng": "121.5486", "ar": "敦化南路1段158號(前)", "bemp": "8", "bemp_2": "7", "act": "1", "ub_tyope2_0": 2.0, "ub_tyope1_0": 0.0, "ub_time0": 0, "ub_time5": 5}, "geometry": {"coordinates": [121.5486, 25.04405]}}, {"properties": {"sno": "500101155", "sna": "YouBike2.0_捷運大安森林公園站(5號出口)", "tot": "15", "sbi": "1", "sbi_2": "2", "sarea": "大安區", "mday": "2022-05-24 15:29:37", "lat": "25.03336", "lng": "121.5364", "ar": "捷運大安森林公園站(5號出口)東側", "bemp": "14", "bemp_2": "13", "act": "1", "ub_tyope2_0": 2.0, "ub_tyope1_0": 0.0, "ub_time0": 0, "ub_time5": 5}, "geometry": {"coordinates": [121.5364, 25.03336]}}, {"properties": {"sno": "500101156", "sna": "YouBike2.0_信義建國路口", "tot": "34", "sbi": "0", "sbi_2": "4", "sarea": "大安區", "mday": "2022-05-24 15:00:16", "lat": "25.0328", "lng": "121.53746", "ar": "建國南路二段與信義路三段口西南側", "bemp": "34", "bemp_2": "30", "act": "1", "ub_tyope2_0": 2.0, "ub_tyope1_0": 0.0, "ub_time0": 0, "ub_time5": 5}, "geometry": {"coordinates": [121.53746, 25.0328]}}, {"properties": {"sno": "500101157", "sna": "YouBike2.0_東豐公園", "tot": "19", "sbi": "5", "sbi_2": "6", "sarea": "大安區", "mday": "2022-05-24 15:21:23", "lat": "25.03569", "lng": "121.5451", "ar": "東豐街24號(旁公園路側)", "bemp": "14", "bemp_2": "13", "act": "1", "ub_tyope2_0": 2.0, "ub_tyope1_0": 0.0, "ub_time0": 0, "ub_time5": 5}, "geometry": {"coordinates": [121.5451, 25.03569]}}, {"properties": {"sno": "500101158", "sna": "YouBike2.0_德安公園(四維路66巷)", "tot": "14", "sbi": "12", "sbi_2": "13", "sarea": "大安區", "mday": "2022-05-24 15:02:11", "lat": "25.03473", "lng": "121.54767", "ar": "四維路66巷6號北側", "bemp": "2", "bemp_2": "1", "act": "1", "ub_tyope2_0": 2.0, "ub_tyope1_0": 0.0, "ub_time0": 0, "ub_time5": 5}, "geometry": {"coordinates": [121.54767, 25.03473]}}, {"properties": {"sno": "500101159", "sna": "YouBike2.0_捷運忠孝復興站(5號出口)", "tot": "41", "sbi": "20", "sbi_2": "21", "sarea": "大安區", "mday": "2022-05-24 15:10:22", "lat": "25.04262", "lng": "121.54443", "ar": "復興南路一段135巷3號(對面)", "bemp": "21", "bemp_2": "20", "act": "1", "ub_tyope2_0": 2.0, "ub_tyope1_0": 0.0, "ub_time0": 0, "ub_time5": 5}, "geometry": {"coordinates": [121.54443, 25.04262]}}, {"properties": {"sno": "500101160", "sna": "YouBike2.0_捷運忠孝敦化站(2號出口)", "tot": "17", "sbi": "17", "sbi_2": "16", "sarea": "大安區", "mday": "2022-05-24 15:30:15", "lat": "25.04153", "lng": "121.5524", "ar": "忠孝東路四段221號", "bemp": "0", "bemp_2": "1", "act": "1", "ub_tyope2_0": 2.0, "ub_tyope1_0": 0.0, "ub_time0": 0, "ub_time5": 5}, "geometry": {"coordinates": [121.5524, 25.04153]}}, {"properties": {"sno": "500101161", "sna": "YouBike2.0_捷運忠孝敦化站(7號出口)", "tot": "18", "sbi": "5", "sbi_2": "6", "sarea": "大安區", "mday": "2022-05-24 15:24:11", "lat": "25.04159", "lng": "121.54937", "ar": "忠孝東路四段143號", "bemp": "13", "bemp_2": "12", "act": "1", "ub_tyope2_0": 2.0, "ub_tyope1_0": 0.0, "ub_time0": 0, "ub_time5": 5}, "geometry": {"coordinates": [121.54937, 25.04159]}}, {"properties": {"sno": "500101163", "sna": "YouBike2.0_瑞安街208巷", "tot": "15", "sbi": "0", "sbi_2": "2", "sarea": "大安區", "mday": "2022-05-24 14:58:04", "lat": "25.02979", "lng": "121.54053", "ar": "瑞安街208巷39號對面", "bemp": "15", "bemp_2": "13", "act": "1", "ub_tyope2_0": 2.0, "ub_tyope1_0": 0.0, "ub_time0": 0, "ub_time5": 5}, "geometry": {"coordinates": [121.54053, 25.02979]}}, {"properties": {"sno": "500101165", "sna": "YouBike2.0_樂利路21巷口", "tot": "17", "sbi": "4", "sbi_2": "6", "sarea": "大安區", "mday": "2022-05-24 14:16:11", "lat": "25.0277", "lng": "121.55132", "ar": "樂利路25號", "bemp": "13", "bemp_2": "11", "act": "1", "ub_tyope2_0": 2.0, "ub_tyope1_0": 0.0, "ub_time0": 0, "ub_time5": 5}, "geometry": {"coordinates": [121.55132, 25.0277]}}, {"properties": {"sno": "500101166", "sna": "YouBike2.0_捷運科技大樓站(台北教育大學)", "tot": "20", "sbi": "0", "sbi_2": "2", "sarea": "大安區", "mday": "2022-05-24 14:36:04", "lat": "25.02469", "lng": "121.54459", "ar": "和平東路二段134號前", "bemp": "20", "bemp_2": "18", "act": "1", "ub_tyope2_0": 2.0, "ub_tyope1_0": 0.0, "ub_time0": 0, "ub_time5": 5}, "geometry": {"coordinates": [121.54459, 25.02469]}}, {"properties": {"sno": "500101167", "sna": "YouBike2.0_捷運國父紀念館站(2號出口)", "tot": "31", "sbi": "24", "sbi_2": "22", "sarea": "大安區", "mday": "2022-05-24 15:18:38", "lat": "25.04122", "lng": "121.55745", "ar": "忠孝東路四段/光復南路口(西南側)", "bemp": "7", "bemp_2": "9", "act": "1", "ub_tyope2_0": 2.0, "ub_tyope1_0": 0.0, "ub_time0": 0, "ub_time5": 5}, "geometry": {"coordinates": [121.55745, 25.04122]}}, {"properties": {"sno": "500101168", "sna": "YouBike2.0_仁愛醫院", "tot": "20", "sbi": "11", "sbi_2": "14", "sarea": "大安區", "mday": "2022-05-24 15:15:12", "lat": "25.03756", "lng": "121.54587", "ar": "仁愛路四段/大安路一段口(西南側)", "bemp": "7", "bemp_2": "6", "act": "1", "ub_tyope2_0": 2.0, "ub_tyope1_0": 0.0, "ub_time0": 0, "ub_time5": 5}, "geometry": {"coordinates": [121.54587, 25.03756]}}, {"properties": {"sno": "500101169", "sna": "YouBike2.0_捷運信義安和站(4號出口)", "tot": "18", "sbi": "2", "sbi_2": "2", "sarea": "大安區", "mday": "2022-05-24 15:17:37", "lat": "25.03305", "lng": "121.55378", "ar": "信義路四段252號前", "bemp": "16", "bemp_2": "16", "act": "1", "ub_tyope2_0": 2.0, "ub_tyope1_0": 0.0, "ub_time0": 0, "ub_time5": 5}, "geometry": {"coordinates": [121.55378, 25.03305]}}, {"properties": {"sno": "500101170", "sna": "YouBike2.0_成功國宅", "tot": "20", "sbi": "3", "sbi_2": "2", "sarea": "大安區", "mday": "2022-05-24 14:45:12", "lat": "25.02681", "lng": "121.54668", "ar": "和平東路三段1巷/四維路198巷口(西北側)", "bemp": "17", "bemp_2": "18", "act": "1", "ub_tyope2_0": 2.0, "ub_tyope1_0": 0.0, "ub_time0": 0, "ub_time5": 5}, "geometry": {"coordinates": [121.54668, 25.02681]}}, {"properties": {"sno": "500101171", "sna": "YouBike2.0_仁愛延吉街口", "tot": "17", "sbi": "12", "sbi_2": "12", "sarea": "大安區", "mday": "2022-05-24 15:11:11", "lat": "25.03748", "lng": "121.55564", "ar": "仁愛路四段376號前", "bemp": "5", "bemp_2": "5", "act": "1", "ub_tyope2_0": 2.0, "ub_tyope1_0": 0.0, "ub_time0": 0, "ub_time5": 5}, "geometry": {"coordinates": [121.55564, 25.03748]}}, {"properties": {"sno": "500101172", "sna": "YouBike2.0_捷運信義安和站(1號出口)", "tot": "23", "sbi": "13", "sbi_2": "12", "sarea": "大安區", "mday": "2022-05-24 15:12:37", "lat": "25.03331", "lng": "121.55265", "ar": "信義路四段225號前", "bemp": "10", "bemp_2": "11", "act": "1", "ub_tyope2_0": 2.0, "ub_tyope1_0": 0.0, "ub_time0": 0, "ub_time5": 5}, "geometry": {"coordinates": [121.55265, 25.03331]}}, {"properties": {"sno": "500101173", "sna": "YouBike2.0_敦化南路二段103巷口", "tot": "12", "sbi": "8", "sbi_2": "9", "sarea": "大安區", "mday": "2022-05-24 15:05:11", "lat": "25.0287", "lng": "121.54904", "ar": "敦化南路二段99號前", "bemp": "4", "bemp_2": "3", "act": "1", "ub_tyope2_0": 2.0, "ub_tyope1_0": 0.0, "ub_time0": 0, "ub_time5": 5}, "geometry": {"coordinates": [121.54904, 25.0287]}}, {"properties": {"sno": "500101174", "sna": "YouBike2.0_復興南路二段128巷口", "tot": "24", "sbi": "5", "sbi_2": "8", "sarea": "大安區", "mday": "2022-05-24 14:46:11", "lat": "25.02861", "lng": "121.54336", "ar": "復興南路二段142之1號前", "bemp": "19", "bemp_2": "16", "act": "1", "ub_tyope2_0": 2.0, "ub_tyope1_0": 0.0, "ub_time0": 0, "ub_time5": 5}, "geometry": {"coordinates": [121.54336, 25.02861]}}, {"properties": {"sno": "500101175", "sna": "YouBike2.0_和平東建國南路口", "tot": "14", "sbi": "4", "sbi_2": "5", "sarea": "大安區", "mday": "2022-05-24 15:11:11", "lat": "25.02575", "lng": "121.5377", "ar": "和平東路/建國南路口(北側)", "bemp": "10", "bemp_2": "9", "act": "1", "ub_tyope2_0": 2.0, "ub_tyope1_0": 0.0, "ub_time0": 0, "ub_time5": 5}, "geometry": {"coordinates": [121.5377, 25.02575]}}, {"properties": {"sno": "500101177", "sna": "YouBike2.0_復興南路一段126巷口", "tot": "15", "sbi": "4", "sbi_2": "5", "sarea": "大安區", "mday": "2022-05-24 15:00:37", "lat": "25.04311", "lng": "121.54313", "ar": "復興南路一段126巷1號前", "bemp": "11", "bemp_2": "10", "act": "1", "ub_tyope2_0": 2.0, "ub_tyope1_0": 0.0, "ub_time0": 0, "ub_time5": 5}, "geometry": {"coordinates": [121.54313, 25.04311]}}, {"properties": {"sno": "500101179", "sna": "YouBike2.0_捷運東門站(5號出口)", "tot": "28", "sbi": "18", "sbi_2": "20", "sarea": "大安區", "mday": "2022-05-24 15:02:11", "lat": "25.03363", "lng": "121.52962", "ar": "信義路二段178號前", "bemp": "10", "bemp_2": "8", "act": "1", "ub_tyope2_0": 2.0, "ub_tyope1_0": 0.0, "ub_time0": 0, "ub_time5": 5}, "geometry": {"coordinates": [121.52962, 25.03363]}}, {"properties": {"sno": "500101180", "sna": "YouBike2.0_仁愛路四段48巷口", "tot": "11", "sbi": "10", "sbi_2": "10", "sarea": "大安區", "mday": "2022-05-24 14:58:04", "lat": "25.03609", "lng": "121.54709", "ar": "仁愛路四段48巷/東豐街(北側)", "bemp": "1", "bemp_2": "1", "act": "1", "ub_tyope2_0": 2.0, "ub_tyope1_0": 0.0, "ub_time0": 0, "ub_time5": 5}, "geometry": {"coordinates": [121.54709, 25.03609]}}, {"properties": {"sno": "500101182", "sna": "YouBike2.0_臺北科技大學(電機工程系)", "tot": "16", "sbi": "6", "sbi_2": "5", "sarea": "大安區", "mday": "2022-05-24 14:57:37", "lat": "25.04196", "lng": "121.53653", "ar": "忠孝東路三段100號對側", "bemp": "10", "bemp_2": "11", "act": "1", "ub_tyope2_0": 2.0, "ub_tyope1_0": 0.0, "ub_time0": 0, "ub_time5": 5}, "geometry": {"coordinates": [121.53653, 25.04196]}}, {"properties": {"sno": "500101183", "sna": "YouBike2.0_忠孝東路三段217巷口", "tot": "34", "sbi": "4", "sbi_2": "4", "sarea": "大安區", "mday": "2022-05-24 15:23:11", "lat": "25.04176", "lng": "121.54027", "ar": "忠孝東路三段229-1號前", "bemp": "30", "bemp_2": "30", "act": "1", "ub_tyope2_0": 2.0, "ub_tyope1_0": 0.0, "ub_time0": 0, "ub_time5": 5}, "geometry": {"coordinates": [121.54027, 25.04176]}}, {"properties": {"sno": "500101184", "sna": "YouBike2.0_新生南路三段94巷口", "tot": "15", "sbi": "7", "sbi_2": "8", "sarea": "大安區", "mday": "2022-05-24 14:30:23", "lat": "25.01744", "lng": "121.53334", "ar": "新生南路三段94號前", "bemp": "8", "bemp_2": "7", "act": "1", "ub_tyope2_0": 2.0, "ub_tyope1_0": 0.0, "ub_time0": 0, "ub_time5": 5}, "geometry": {"coordinates": [121.53334, 25.01744]}}, {"properties": {"sno": "500101185", "sna": "YouBike2.0_辛亥新生路口西北側", "tot": "12", "sbi": "4", "sbi_2": "6", "sarea": "大安區", "mday": "2022-05-24 12:57:11", "lat": "25.02267", "lng": "121.5341", "ar": "辛亥路一段/新生南路三段(西北側)", "bemp": "7", "bemp_2": "6", "act": "1", "ub_tyope2_0": 2.0, "ub_tyope1_0": 0.0, "ub_time0": 0, "ub_time5": 5}, "geometry": {"coordinates": [121.5341, 25.02267]}}, {"properties": {"sno": "500101186", "sna": "YouBike2.0_捷運大安站(6號出口)", "tot": "19", "sbi": "11", "sbi_2": "10", "sarea": "大安區", "mday": "2022-05-24 15:14:10", "lat": "25.03479", "lng": "121.54376", "ar": "復興南路一段303號前", "bemp": "8", "bemp_2": "9", "act": "1", "ub_tyope2_0": 2.0, "ub_tyope1_0": 0.0, "ub_time0": 0, "ub_time5": 5}, "geometry": {"coordinates": [121.54376, 25.03479]}}, {"properties": {"sno": "500101187", "sna": "YouBike2.0_臥龍街195巷口", "tot": "14", "sbi": "1", "sbi_2": "2", "sarea": "大安區", "mday": "2022-05-24 12:33:03", "lat": "25.01783", "lng": "121.55224", "ar": "臥龍街/臥龍街195巷(南側)", "bemp": "13", "bemp_2": "12", "act": "1", "ub_tyope2_0": 2.0, "ub_tyope1_0": 0.0, "ub_time0": 0, "ub_time5": 5}, "geometry": {"coordinates": [121.55224, 25.01783]}}, {"properties": {"sno": "500101188", "sna": "YouBike2.0_辛亥路三段157巷口", "tot": "19", "sbi": "0", "sbi_2": "2", "sarea": "大安區", "mday": "2022-05-24 12:11:03", "lat": "25.01727", "lng": "121.54904", "ar": "辛亥路三段與辛亥路三段157巷口西北側", "bemp": "19", "bemp_2": "17", "act": "1", "ub_tyope2_0": 2.0, "ub_tyope1_0": 0.0, "ub_time0": 0, "ub_time5": 5}, "geometry": {"coordinates": [121.54904, 25.01727]}}, {"properties": {"sno": "500101189", "sna": "YouBike2.0_臥龍基隆路口", "tot": "16", "sbi": "14", "sbi_2": "15", "sarea": "大安區", "mday": "2022-05-24 15:18:12", "lat": "25.02039", "lng": "121.54853", "ar": "臥龍街與基隆路二段口東北側", "bemp": "2", "bemp_2": "1", "act": "1", "ub_tyope2_0": 2.0, "ub_tyope1_0": 0.0, "ub_time0": 0, "ub_time5": 5}, "geometry": {"coordinates": [121.54853, 25.02039]}}, {"properties": {"sno": "500101190", "sna": "YouBike2.0_敦親公園", "tot": "16", "sbi": "9", "sbi_2": "8", "sarea": "大安區", "mday": "2022-05-24 15:31:12", "lat": "25.02347", "lng": "121.54108", "ar": "和平東路二段96巷8之1號(前方)", "bemp": "7", "bemp_2": "8", "act": "1", "ub_tyope2_0": 2.0, "ub_tyope1_0": 0.0, "ub_time0": 0, "ub_time5": 5}, "geometry": {"coordinates": [121.54108, 25.02347]}}, {"properties": {"sno": "500101191", "sna": "YouBike2.0_大安運動中心", "tot": "18", "sbi": "3", "sbi_2": "2", "sarea": "大安區", "mday": "2022-05-24 15:27:11", "lat": "25.02054", "lng": "121.54561", "ar": "辛亥路三段55號前方人行道(大安運動中心)", "bemp": "15", "bemp_2": "16", "act": "1", "ub_tyope2_0": 2.0, "ub_tyope1_0": 0.0, "ub_time0": 0, "ub_time5": 5}, "geometry": {"coordinates": [121.54561, 25.02054]}}, {"properties": {"sno": "500101192", "sna": "YouBike2.0_和平敦化路口", "tot": "22", "sbi": "4", "sbi_2": "3", "sarea": "大安區", "mday": "2022-05-24 14:58:37", "lat": "25.02444", "lng": "121.54908", "ar": "和平東路三段 / 敦化南路二段口(東側)", "bemp": "18", "bemp_2": "19", "act": "1", "ub_tyope2_0": 2.0, "ub_tyope1_0": 0.0, "ub_time0": 0, "ub_time5": 5}, "geometry": {"coordinates": [121.54908, 25.02444]}}, {"properties": {"sno": "500101193", "sna": "YouBike2.0_基隆長興路口", "tot": "43", "sbi": "11", "sbi_2": "13", "sarea": "大安區", "mday": "2022-05-24 14:59:11", "lat": "25.01705", "lng": "121.54435", "ar": "基隆路/長興街(東南側)", "bemp": "32", "bemp_2": "30", "act": "1", "ub_tyope2_0": 2.0, "ub_tyope1_0": 0.0, "ub_time0": 0, "ub_time5": 5}, "geometry": {"coordinates": [121.54435, 25.01705]}}, {"properties": {"sno": "500101194", "sna": "YouBike2.0_仁愛路四段122巷口", "tot": "16", "sbi": "9", "sbi_2": "8", "sarea": "大安區", "mday": "2022-05-24 15:18:30", "lat": "25.03762", "lng": "121.55009", "ar": "仁愛路四段118號前", "bemp": "7", "bemp_2": "8", "act": "1", "ub_tyope2_0": 2.0, "ub_tyope1_0": 0.0, "ub_time0": 0, "ub_time5": 5}, "geometry": {"coordinates": [121.55009, 25.03762]}}, {"properties": {"sno": "500101196", "sna": "YouBike2.0_市民敦化路口", "tot": "15", "sbi": "9", "sbi_2": "8", "sarea": "大安區", "mday": "2022-05-24 14:07:38", "lat": "25.04464", "lng": "121.54944", "ar": "敦化南路一段111號前", "bemp": "6", "bemp_2": "7", "act": "1", "ub_tyope2_0": 2.0, "ub_tyope1_0": 0.0, "ub_time0": 0, "ub_time5": 5}, "geometry": {"coordinates": [121.54944, 25.04464]}}, {"properties": {"sno": "500101197", "sna": "YouBike2.0_忠孝東路四段49巷口", "tot": "15", "sbi": "4", "sbi_2": "5", "sarea": "大安區", "mday": "2022-05-24 13:59:37", "lat": "25.04172", "lng": "121.54541", "ar": "忠孝東路四段55號前", "bemp": "11", "bemp_2": "10", "act": "1", "ub_tyope2_0": 2.0, "ub_tyope1_0": 0.0, "ub_time0": 0, "ub_time5": 5}, "geometry": {"coordinates": [121.54541, 25.04172]}}, {"properties": {"sno": "500101198", "sna": "YouBike2.0_市民復興路口(東南側)", "tot": "16", "sbi": "0", "sbi_2": "2", "sarea": "大安區", "mday": "2022-05-20 00:51:04", "lat": "25.04472", "lng": "121.54401", "ar": "市民大道四段/復興路一段口(東南側)", "bemp": "16", "bemp_2": "14", "act": "0", "ub_tyope2_0": 2.0, "ub_tyope1_0": 0.0, "ub_time0": 0, "ub_time5": 5}, "geometry": {"coordinates": [121.54401, 25.04472]}}, {"properties": {"sno": "500103001", "sna": "YouBike2.0_延平國宅", "tot": "30", "sbi": "9", "sbi_2": "9", "sarea": "大同區", "mday": "2022-05-24 15:18:38", "lat": "25.07894", "lng": "121.51121", "ar": "延平北路五段1-1號(對面)", "bemp": "21", "bemp_2": "21", "act": "1", "ub_tyope2_0": 2.0, "ub_tyope1_0": 0.0, "ub_time0": 0, "ub_time5": 5}, "geometry": {"coordinates": [121.51121, 25.07894]}}, {"properties": {"sno": "500103002", "sna": "YouBike2.0_臺北市立圖書館大同分館", "tot": "20", "sbi": "10", "sbi_2": "10", "sarea": "大同區", "mday": "2022-05-24 14:56:37", "lat": "25.0741", "lng": "121.51349", "ar": "重慶北路三段318號旁", "bemp": "10", "bemp_2": "10", "act": "1", "ub_tyope2_0": 2.0, "ub_tyope1_0": 0.0, "ub_time0": 0, "ub_time5": 5}, "geometry": {"coordinates": [121.51349, 25.0741]}}, {"properties": {"sno": "500103003", "sna": "YouBike2.0_合昌宮", "tot": "15", "sbi": "1", "sbi_2": "2", "sarea": "大同區", "mday": "2022-05-24 13:37:11", "lat": "25.07717", "lng": "121.50934", "ar": "環河北路二段371號旁", "bemp": "14", "bemp_2": "13", "act": "1", "ub_tyope2_0": 2.0, "ub_tyope1_0": 0.0, "ub_time0": 0, "ub_time5": 5}, "geometry": {"coordinates": [121.50934, 25.07717]}}, {"properties": {"sno": "500103004", "sna": "YouBike2.0_民族延平路口", "tot": "14", "sbi": "1", "sbi_2": "2", "sarea": "大同區", "mday": "2022-05-24 15:14:03", "lat": "25.06864", "lng": "121.5107", "ar": "延平北路三段123號北側", "bemp": "13", "bemp_2": "12", "act": "1", "ub_tyope2_0": 2.0, "ub_tyope1_0": 0.0, "ub_time0": 0, "ub_time5": 5}, "geometry": {"coordinates": [121.5107, 25.06864]}}, {"properties": {"sno": "500103005", "sna": "YouBike2.0_重慶酒泉街口", "tot": "14", "sbi": "4", "sbi_2": "5", "sarea": "大同區", "mday": "2022-05-24 14:51:37", "lat": "25.07158", "lng": "121.51368", "ar": "重慶北路三段260號前", "bemp": "10", "bemp_2": "9", "act": "1", "ub_tyope2_0": 2.0, "ub_tyope1_0": 0.0, "ub_time0": 0, "ub_time5": 5}, "geometry": {"coordinates": [121.51368, 25.07158]}}, {"properties": {"sno": "500103006", "sna": "YouBike2.0_樹德公園", "tot": "14", "sbi": "7", "sbi_2": "7", "sarea": "大同區", "mday": "2022-05-24 15:06:11", "lat": "25.06647", "lng": "121.5165", "ar": "大龍街85巷12號對側", "bemp": "7", "bemp_2": "7", "act": "1", "ub_tyope2_0": 2.0, "ub_tyope1_0": 0.0, "ub_time0": 0, "ub_time5": 5}, "geometry": {"coordinates": [121.5165, 25.06647]}}, {"properties": {"sno": "500103007", "sna": "YouBike2.0_陳天來故居", "tot": "18", "sbi": "1", "sbi_2": "2", "sarea": "大同區", "mday": "2022-05-24 14:49:37", "lat": "25.05601", "lng": "121.50895", "ar": "西寧北路112號前方", "bemp": "17", "bemp_2": "16", "act": "1", "ub_tyope2_0": 2.0, "ub_tyope1_0": 0.0, "ub_time0": 0, "ub_time5": 5}, "geometry": {"coordinates": [121.50895, 25.05601]}}, {"properties": {"sno": "500103008", "sna": "YouBike2.0_臺北孔廟", "tot": "20", "sbi": "7", "sbi_2": "6", "sarea": "大同區", "mday": "2022-05-24 15:01:12", "lat": "25.07378", "lng": "121.51583", "ar": "哈密街61號口對側人行道", "bemp": "13", "bemp_2": "14", "act": "1", "ub_tyope2_0": 2.0, "ub_tyope1_0": 0.0, "ub_time0": 0, "ub_time5": 5}, "geometry": {"coordinates": [121.51583, 25.07378]}}, {"properties": {"sno": "500103009", "sna": "YouBike2.0_捷運圓山站(1號出口)", "tot": "44", "sbi": "22", "sbi_2": "22", "sarea": "大同區", "mday": "2022-05-24 15:21:37", "lat": "25.07133", "lng": "121.52024", "ar": "酒泉街235號前", "bemp": "22", "bemp_2": "22", "act": "1", "ub_tyope2_0": 2.0, "ub_tyope1_0": 0.0, "ub_time0": 0, "ub_time5": 5}, "geometry": {"coordinates": [121.52024, 25.07133]}}, {"properties": {"sno": "500103010", "sna": "YouBike2.0_酒泉延平路口", "tot": "15", "sbi": "5", "sbi_2": "5", "sarea": "大同區", "mday": "2022-05-24 15:28:38", "lat": "25.0722", "lng": "121.51057", "ar": "酒泉街235號前", "bemp": "10", "bemp_2": "10", "act": "1", "ub_tyope2_0": 2.0, "ub_tyope1_0": 0.0, "ub_time0": 0, "ub_time5": 5}, "geometry": {"coordinates": [121.51057, 25.0722]}}, {"properties": {"sno": "500103011", "sna": "YouBike2.0_重慶國中", "tot": "37", "sbi": "13", "sbi_2": "12", "sarea": "大同區", "mday": "2022-05-24 13:35:38", "lat": "25.07567", "lng": "121.51862", "ar": "敦煌路19號前", "bemp": "24", "bemp_2": "25", "act": "1", "ub_tyope2_0": 2.0, "ub_tyope1_0": 0.0, "ub_time0": 0, "ub_time5": 5}, "geometry": {"coordinates": [121.51862, 25.07567]}}, {"properties": {"sno": "500103012", "sna": "YouBike2.0_重慶北路三段383巷口", "tot": "15", "sbi": "11", "sbi_2": "11", "sarea": "大同區", "mday": "2022-05-24 13:46:37", "lat": "25.07598", "lng": "121.51409", "ar": "敦煌路與重慶北路三段383巷口", "bemp": "4", "bemp_2": "4", "act": "1", "ub_tyope2_0": 2.0, "ub_tyope1_0": 0.0, "ub_time0": 0, "ub_time5": 5}, "geometry": {"coordinates": [121.51409, 25.07598]}}, {"properties": {"sno": "500103013", "sna": "YouBike2.0_台北數位產業園區", "tot": "24", "sbi": "11", "sbi_2": "12", "sarea": "大同區", "mday": "2022-05-24 13:17:37", "lat": "25.07447", "lng": "121.52003", "ar": "承德路三段287號前方", "bemp": "13", "bemp_2": "12", "act": "1", "ub_tyope2_0": 2.0, "ub_tyope1_0": 0.0, "ub_time0": 0, "ub_time5": 5}, "geometry": {"coordinates": [121.52003, 25.07447]}}, {"properties": {"sno": "500103019", "sna": "YouBike2.0_民權延平路口(西北側)", "tot": "20", "sbi": "6", "sbi_2": "6", "sarea": "大同區", "mday": "2022-05-24 15:03:37", "lat": "25.06326", "lng": "121.51099", "ar": "民權西路239號前方", "bemp": "14", "bemp_2": "14", "act": "1", "ub_tyope2_0": 2.0, "ub_tyope1_0": 0.0, "ub_time0": 0, "ub_time5": 5}, "geometry": {"coordinates": [121.51099, 25.06326]}}, {"properties": {"sno": "500103020", "sna": "YouBike2.0_民權迪化街口", "tot": "23", "sbi": "4", "sbi_2": "3", "sarea": "大同區", "mday": "2022-05-24 13:31:37", "lat": "25.06327", "lng": "121.50943", "ar": "民權西路與迪化街一段口(橋墩下)", "bemp": "19", "bemp_2": "20", "act": "1", "ub_tyope2_0": 2.0, "ub_tyope1_0": 0.0, "ub_time0": 0, "ub_time5": 5}, "geometry": {"coordinates": [121.50943, 25.06327]}}, {"properties": {"sno": "500103021", "sna": "YouBike2.0_大稻埕公園", "tot": "19", "sbi": "1", "sbi_2": "2", "sarea": "大同區", "mday": "2022-05-24 14:58:37", "lat": "25.05915", "lng": "121.51033", "ar": "安西街1巷7號(對側)", "bemp": "18", "bemp_2": "17", "act": "1", "ub_tyope2_0": 2.0, "ub_tyope1_0": 0.0, "ub_time0": 0, "ub_time5": 5}, "geometry": {"coordinates": [121.51033, 25.05915]}}, {"properties": {"sno": "500103022", "sna": "YouBike2.0_大龍老人住宅", "tot": "14", "sbi": "5", "sbi_2": "5", "sarea": "大同區", "mday": "2022-05-24 12:22:37", "lat": "25.06853", "lng": "121.51729", "ar": "民族西路82號前方", "bemp": "9", "bemp_2": "9", "act": "1", "ub_tyope2_0": 2.0, "ub_tyope1_0": 0.0, "ub_time0": 0, "ub_time5": 5}, "geometry": {"coordinates": [121.51729, 25.06853]}}, {"properties": {"sno": "500103023", "sna": "YouBike2.0_大龍峒社會住宅", "tot": "20", "sbi": "4", "sbi_2": "2", "sarea": "大同區", "mday": "2022-05-24 15:07:38", "lat": "25.0708", "lng": "121.51826", "ar": "承德路三段210號旁", "bemp": "16", "bemp_2": "18", "act": "1", "ub_tyope2_0": 2.0, "ub_tyope1_0": 0.0, "ub_time0": 0, "ub_time5": 5}, "geometry": {"coordinates": [121.51826, 25.0708]}}, {"properties": {"sno": "500103024", "sna": "YouBike2.0_捷運大橋頭站(2號出口)", "tot": "21", "sbi": "5", "sbi_2": "7", "sarea": "大同區", "mday": "2022-05-24 15:03:11", "lat": "25.06314", "lng": "121.51308", "ar": "捷運大橋頭站(2號出口)西側", "bemp": "16", "bemp_2": "14", "act": "1", "ub_tyope2_0": 2.0, "ub_tyope1_0": 0.0, "ub_time0": 0, "ub_time5": 5}, "geometry": {"coordinates": [121.51308, 25.06314]}}, {"properties": {"sno": "500103025", "sna": "YouBike2.0_捷運大橋頭站(1A出口)", "tot": "18", "sbi": "5", "sbi_2": "6", "sarea": "大同區", "mday": "2022-05-24 14:47:11", "lat": "25.06325", "lng": "121.51162", "ar": "民權西路237號旁", "bemp": "13", "bemp_2": "12", "act": "1", "ub_tyope2_0": 2.0, "ub_tyope1_0": 0.0, "ub_time0": 0, "ub_time5": 5}, "geometry": {"coordinates": [121.51162, 25.06325]}}, {"properties": {"sno": "500103026", "sna": "YouBike2.0_捷運民權西路站(2號出口)", "tot": "25", "sbi": "8", "sbi_2": "8", "sarea": "大同區", "mday": "2022-05-24 14:47:11", "lat": "25.06174", "lng": "121.51969", "ar": "捷運民權西路站(2號出口)西側", "bemp": "17", "bemp_2": "17", "act": "1", "ub_tyope2_0": 2.0, "ub_tyope1_0": 0.0, "ub_time0": 0, "ub_time5": 5}, "geometry": {"coordinates": [121.51969, 25.06174]}}, {"properties": {"sno": "500103027", "sna": "YouBike2.0_捷運雙連站(2號出口)", "tot": "31", "sbi": "17", "sbi_2": "16", "sarea": "大同區", "mday": "2022-05-24 15:07:11", "lat": "25.05826", "lng": "121.52063", "ar": "萬全街22號對面", "bemp": "14", "bemp_2": "15", "act": "1", "ub_tyope2_0": 2.0, "ub_tyope1_0": 0.0, "ub_time0": 0, "ub_time5": 5}, "geometry": {"coordinates": [121.52063, 25.05826]}}, {"properties": {"sno": "500103028", "sna": "YouBike2.0_捷運北門站(3號出口)", "tot": "48", "sbi": "17", "sbi_2": "15", "sarea": "大同區", "mday": "2022-05-24 15:25:49", "lat": "25.04991", "lng": "121.5104", "ar": "塔城街與鄭州路口西南側", "bemp": "31", "bemp_2": "33", "act": "1", "ub_tyope2_0": 2.0, "ub_tyope1_0": 0.0, "ub_time0": 0, "ub_time5": 5}, "geometry": {"coordinates": [121.5104, 25.04991]}}, {"properties": {"sno": "500103029", "sna": "YouBike2.0_朝陽公園", "tot": "10", "sbi": "5", "sbi_2": "5", "sarea": "大同區", "mday": "2022-05-24 14:50:20", "lat": "25.05592", "lng": "121.51367", "ar": "重慶北路二段62-1號旁", "bemp": "5", "bemp_2": "5", "act": "1", "ub_tyope2_0": 2.0, "ub_tyope1_0": 0.0, "ub_time0": 0, "ub_time5": 5}, "geometry": {"coordinates": [121.51367, 25.05592]}}, {"properties": {"sno": "500103030", "sna": "YouBike2.0_永樂市場", "tot": "14", "sbi": "7", "sbi_2": "7", "sarea": "大同區", "mday": "2022-05-24 14:58:04", "lat": "25.05454", "lng": "121.51052", "ar": "南京西路233巷103號旁", "bemp": "7", "bemp_2": "7", "act": "1", "ub_tyope2_0": 2.0, "ub_tyope1_0": 0.0, "ub_time0": 0, "ub_time5": 5}, "geometry": {"coordinates": [121.51052, 25.05454]}}, {"properties": {"sno": "500103031", "sna": "YouBike2.0_大龍公園", "tot": "18", "sbi": "4", "sbi_2": "6", "sarea": "大同區", "mday": "2022-05-24 14:12:11", "lat": "25.07049", "lng": "121.51596", "ar": "大龍街217號對側", "bemp": "14", "bemp_2": "12", "act": "1", "ub_tyope2_0": 2.0, "ub_tyope1_0": 0.0, "ub_time0": 0, "ub_time5": 5}, "geometry": {"coordinates": [121.51596, 25.07049]}}, {"properties": {"sno": "500103032", "sna": "YouBike2.0_重慶涼州街口", "tot": "13", "sbi": "10", "sbi_2": "10", "sarea": "大同區", "mday": "2022-05-24 15:14:37", "lat": "25.06054", "lng": "121.51338", "ar": "重慶北路二段180號旁", "bemp": "3", "bemp_2": "3", "act": "1", "ub_tyope2_0": 2.0, "ub_tyope1_0": 0.0, "ub_time0": 0, "ub_time5": 5}, "geometry": {"coordinates": [121.51338, 25.06054]}}, {"properties": {"sno": "500103034", "sna": "YouBike2.0_圓環站", "tot": "21", "sbi": "18", "sbi_2": "19", "sarea": "大同區", "mday": "2022-05-24 15:02:11", "lat": "25.05369", "lng": "121.51418", "ar": "重慶北路一段128號前", "bemp": "3", "bemp_2": "2", "act": "1", "ub_tyope2_0": 2.0, "ub_tyope1_0": 0.0, "ub_time0": 0, "ub_time5": 5}, "geometry": {"coordinates": [121.51418, 25.05369]}}, {"properties": {"sno": "500103035", "sna": "YouBike2.0_重慶民族路口", "tot": "13", "sbi": "2", "sbi_2": "2", "sarea": "大同區", "mday": "2022-05-24 12:24:37", "lat": "25.06853", "lng": "121.51359", "ar": "重慶北路三段162號前", "bemp": "11", "bemp_2": "11", "act": "1", "ub_tyope2_0": 2.0, "ub_tyope1_0": 0.0, "ub_time0": 0, "ub_time5": 5}, "geometry": {"coordinates": [121.51359, 25.06853]}}, {"properties": {"sno": "500103036", "sna": "YouBike2.0_承德路三段8巷口", "tot": "10", "sbi": "9", "sbi_2": "9", "sarea": "大同區", "mday": "2022-05-24 15:15:12", "lat": "25.06407", "lng": "121.51822", "ar": "承德路三段14號前", "bemp": "1", "bemp_2": "1", "act": "1", "ub_tyope2_0": 2.0, "ub_tyope1_0": 0.0, "ub_time0": 0, "ub_time5": 5}, "geometry": {"coordinates": [121.51822, 25.06407]}}, {"properties": {"sno": "500103037", "sna": "YouBike2.0_太原廣場", "tot": "31", "sbi": "14", "sbi_2": "16", "sarea": "大同區", "mday": "2022-05-24 14:10:37", "lat": "25.04925", "lng": "121.51468", "ar": "鄭州路23號(旁)", "bemp": "17", "bemp_2": "15", "act": "1", "ub_tyope2_0": 2.0, "ub_tyope1_0": 0.0, "ub_time0": 0, "ub_time5": 5}, "geometry": {"coordinates": [121.51468, 25.04925]}}, {"properties": {"sno": "500103038", "sna": "YouBike2.0_國順公園", "tot": "20", "sbi": "5", "sbi_2": "6", "sarea": "大同區", "mday": "2022-05-24 15:09:38", "lat": "25.06592", "lng": "121.51014", "ar": "昌吉街133號前", "bemp": "15", "bemp_2": "14", "act": "1", "ub_tyope2_0": 2.0, "ub_tyope1_0": 0.0, "ub_time0": 0, "ub_time5": 5}, "geometry": {"coordinates": [121.51014, 25.06592]}}, {"properties": {"sno": "500103039", "sna": "YouBike2.0_聯合醫院中興院區", "tot": "13", "sbi": "6", "sbi_2": "7", "sarea": "大同區", "mday": "2022-05-24 14:50:38", "lat": "25.05205", "lng": "121.50818", "ar": "長安西路299號(對面)", "bemp": "7", "bemp_2": "6", "act": "1", "ub_tyope2_0": 2.0, "ub_tyope1_0": 0.0, "ub_time0": 0, "ub_time5": 5}, "geometry": {"coordinates": [121.50818, 25.05205]}}, {"properties": {"sno": "500103040", "sna": "YouBike2.0_蔣渭水紀念公園", "tot": "24", "sbi": "1", "sbi_2": "3", "sarea": "大同區", "mday": "2022-05-24 15:27:11", "lat": "25.06011", "lng": "121.51729", "ar": "錦西街/興城街口(西南側)", "bemp": "23", "bemp_2": "21", "act": "1", "ub_tyope2_0": 2.0, "ub_tyope1_0": 0.0, "ub_time0": 0, "ub_time5": 5}, "geometry": {"coordinates": [121.51729, 25.06011]}}, {"properties": {"sno": "500103041", "sna": "YouBike2.0_迪化休閒運動公園", "tot": "12", "sbi": "2", "sbi_2": "2", "sarea": "大同區", "mday": "2022-05-24 11:36:37", "lat": "25.07491", "lng": "121.5115", "ar": "延平北路四段200號(南側)", "bemp": "10", "bemp_2": "10", "act": "1", "ub_tyope2_0": 2.0, "ub_tyope1_0": 0.0, "ub_time0": 0, "ub_time5": 5}, "geometry": {"coordinates": [121.5115, 25.07491]}}, {"properties": {"sno": "500103042", "sna": "YouBike2.0_大同運動中心", "tot": "16", "sbi": "0", "sbi_2": "2", "sarea": "大同區", "mday": "2022-05-24 15:05:04", "lat": "25.06496", "lng": "121.51608", "ar": "大龍街51號(旁)", "bemp": "16", "bemp_2": "14", "act": "1", "ub_tyope2_0": 2.0, "ub_tyope1_0": 0.0, "ub_time0": 0, "ub_time5": 5}, "geometry": {"coordinates": [121.51608, 25.06496]}}, {"properties": {"sno": "500103043", "sna": "YouBike2.0_重慶保安街口(家樂福重慶店)", "tot": "20", "sbi": "1", "sbi_2": "2", "sarea": "大同區", "mday": "2022-05-24 15:21:03", "lat": "25.05918", "lng": "121.51373", "ar": "重慶北路二段171號(旁)", "bemp": "18", "bemp_2": "18", "act": "1", "ub_tyope2_0": 2.0, "ub_tyope1_0": 0.0, "ub_time0": 0, "ub_time5": 5}, "geometry": {"coordinates": [121.51373, 25.05918]}}, {"properties": {"sno": "500103045", "sna": "YouBike2.0_歸綏戲曲公園", "tot": "20", "sbi": "1", "sbi_2": "2", "sarea": "大同區", "mday": "2022-05-24 15:16:04", "lat": "25.05805", "lng": "121.51353", "ar": "重慶北路二段/歸綏街口(南側)", "bemp": "19", "bemp_2": "18", "act": "1", "ub_tyope2_0": 2.0, "ub_tyope1_0": 0.0, "ub_time0": 0, "ub_time5": 5}, "geometry": {"coordinates": [121.51353, 25.05805]}}, {"properties": {"sno": "500103046", "sna": "YouBike2.0_民權國中(民權西路)", "tot": "17", "sbi": "2", "sbi_2": "2", "sarea": "大同區", "mday": "2022-05-24 14:22:11", "lat": "25.06322", "lng": "121.5144", "ar": "民權西路/蘭州街(西側)", "bemp": "15", "bemp_2": "15", "act": "1", "ub_tyope2_0": 2.0, "ub_tyope1_0": 0.0, "ub_time0": 0, "ub_time5": 5}, "geometry": {"coordinates": [121.5144, 25.06322]}}, {"properties": {"sno": "500103047", "sna": "YouBike2.0_承德民權路口", "tot": "17", "sbi": "8", "sbi_2": "9", "sarea": "大同區", "mday": "2022-05-24 14:19:37", "lat": "25.06247", "lng": "121.51839", "ar": "承德路二段239號前", "bemp": "9", "bemp_2": "8", "act": "1", "ub_tyope2_0": 2.0, "ub_tyope1_0": 0.0, "ub_time0": 0, "ub_time5": 5}, "geometry": {"coordinates": [121.51839, 25.06247]}}, {"properties": {"sno": "500103048", "sna": "YouBike2.0_南京太原路口", "tot": "18", "sbi": "5", "sbi_2": "6", "sarea": "大同區", "mday": "2022-05-24 13:53:12", "lat": "25.05366", "lng": "121.51638", "ar": "南京西路/太原路(東側)", "bemp": "13", "bemp_2": "12", "act": "1", "ub_tyope2_0": 2.0, "ub_tyope1_0": 0.0, "ub_time0": 0, "ub_time5": 5}, "geometry": {"coordinates": [121.51638, 25.05366]}}, {"properties": {"sno": "500103049", "sna": "YouBike2.0_承德民生西路口", "tot": "11", "sbi": "3", "sbi_2": "4", "sarea": "大同區", "mday": "2022-05-24 15:23:11", "lat": "25.05756", "lng": "121.51828", "ar": "承德路二段137號前", "bemp": "8", "bemp_2": "7", "act": "1", "ub_tyope2_0": 2.0, "ub_tyope1_0": 0.0, "ub_time0": 0, "ub_time5": 5}, "geometry": {"coordinates": [121.51828, 25.05756]}}, {"properties": {"sno": "500103050", "sna": "YouBike2.0_太原五原路口", "tot": "20", "sbi": "9", "sbi_2": "10", "sarea": "大同區", "mday": "2022-05-24 14:59:11", "lat": "25.05646", "lng": "121.51698", "ar": "太原路 / 五原路口(東南側)", "bemp": "11", "bemp_2": "10", "act": "1", "ub_tyope2_0": 2.0, "ub_tyope1_0": 0.0, "ub_time0": 0, "ub_time5": 5}, "geometry": {"coordinates": [121.51698, 25.05646]}}, {"properties": {"sno": "500103051", "sna": "YouBike2.0_臺北轉運站(華陰街)", "tot": "20", "sbi": "16", "sbi_2": "14", "sarea": "大同區", "mday": "2022-05-24 15:30:23", "lat": "25.04937", "lng": "121.51914", "ar": "華陰街45號(對面)", "bemp": "4", "bemp_2": "6", "act": "1", "ub_tyope2_0": 2.0, "ub_tyope1_0": 0.0, "ub_time0": 0, "ub_time5": 5}, "geometry": {"coordinates": [121.51914, 25.04937]}}, {"properties": {"sno": "500103052", "sna": "YouBike2.0_捷運民權西路站(3號出口)", "tot": "26", "sbi": "12", "sbi_2": "13", "sarea": "大同區", "mday": "2022-05-24 15:25:37", "lat": "25.06129", "lng": "121.52021", "ar": "民權西路70巷37號對面", "bemp": "14", "bemp_2": "13", "act": "1", "ub_tyope2_0": 2.0, "ub_tyope1_0": 0.0, "ub_time0": 0, "ub_time5": 5}, "geometry": {"coordinates": [121.52021, 25.06129]}}, {"properties": {"sno": "500103053", "sna": "YouBike2.0_捷運中山站(5號出口)", "tot": "11", "sbi": "3", "sbi_2": "4", "sarea": "大同區", "mday": "2022-05-24 14:53:38", "lat": "25.05296", "lng": "121.51938", "ar": "南京西路57號前", "bemp": "8", "bemp_2": "7", "act": "1", "ub_tyope2_0": 2.0, "ub_tyope1_0": 0.0, "ub_time0": 0, "ub_time5": 5}, "geometry": {"coordinates": [121.51938, 25.05296]}}, {"properties": {"sno": "500104001", "sna": "YouBike2.0_劍潭抽水站", "tot": "17", "sbi": "3", "sbi_2": "2", "sarea": "士林區", "mday": "2022-05-24 15:33:38", "lat": "25.08128", "lng": "121.51784", "ar": "通河東街325巷/通河東街口", "bemp": "14", "bemp_2": "15", "act": "1", "ub_tyope2_0": 2.0, "ub_tyope1_0": 0.0, "ub_time0": 0, "ub_time5": 5}, "geometry": {"coordinates": [121.51784, 25.08128]}}, {"properties": {"sno": "500104002", "sna": "YouBike2.0_通河東街大南路口", "tot": "15", "sbi": "4", "sbi_2": "5", "sarea": "士林區", "mday": "2022-05-24 13:04:37", "lat": "25.08914", "lng": "121.51542", "ar": "通河東街1段192號(旁)", "bemp": "11", "bemp_2": "10", "act": "1", "ub_tyope2_0": 2.0, "ub_tyope1_0": 0.0, "ub_time0": 0, "ub_time5": 5}, "geometry": {"coordinates": [121.51542, 25.08914]}}, {"properties": {"sno": "500104003", "sna": "YouBike2.0_福港街停車場", "tot": "22", "sbi": "3", "sbi_2": "3", "sarea": "士林區", "mday": "2022-05-24 15:27:11", "lat": "25.08695", "lng": "121.51901", "ar": "華齡街175號(旁)", "bemp": "19", "bemp_2": "19", "act": "1", "ub_tyope2_0": 2.0, "ub_tyope1_0": 0.0, "ub_time0": 0, "ub_time5": 5}, "geometry": {"coordinates": [121.51901, 25.08695]}}, {"properties": {"sno": "500104004", "sna": "YouBike2.0_百齡國小", "tot": "37", "sbi": "19", "sbi_2": "19", "sarea": "士林區", "mday": "2022-05-24 15:11:37", "lat": "25.08521", "lng": "121.51918", "ar": "前港街104號(對面)", "bemp": "18", "bemp_2": "18", "act": "1", "ub_tyope2_0": 2.0, "ub_tyope1_0": 0.0, "ub_time0": 0, "ub_time5": 5}, "geometry": {"coordinates": [121.51918, 25.08521]}}, {"properties": {"sno": "500104005", "sna": "YouBike2.0_雨聲街165巷口", "tot": "15", "sbi": "5", "sbi_2": "5", "sarea": "士林區", "mday": "2022-05-24 13:24:38", "lat": "25.10277", "lng": "121.53357", "ar": "雨聲街/雨聲街165巷(西北側)", "bemp": "10", "bemp_2": "10", "act": "1", "ub_tyope2_0": 2.0, "ub_tyope1_0": 0.0, "ub_time0": 0, "ub_time5": 5}, "geometry": {"coordinates": [121.53357, 25.10277]}}, {"properties": {"sno": "500104007", "sna": "YouBike2.0_中山天母路口", "tot": "29", "sbi": "6", "sbi_2": "9", "sarea": "士林區", "mday": "2022-05-24 15:27:04", "lat": "25.11856", "lng": "121.52964", "ar": "天母西路3-55號前人行道", "bemp": "23", "bemp_2": "20", "act": "1", "ub_tyope2_0": 2.0, "ub_tyope1_0": 0.0, "ub_time0": 0, "ub_time5": 5}, "geometry": {"coordinates": [121.52964, 25.11856]}}, {"properties": {"sno": "500104008", "sna": "YouBike2.0_天母運動公園", "tot": "27", "sbi": "14", "sbi_2": "14", "sarea": "士林區", "mday": "2022-05-24 15:28:04", "lat": "25.11633", "lng": "121.53414", "ar": "忠誠路二段/忠誠路二段207巷(東南側)", "bemp": "13", "bemp_2": "13", "act": "1", "ub_tyope2_0": 2.0, "ub_tyope1_0": 0.0, "ub_time0": 0, "ub_time5": 5}, "geometry": {"coordinates": [121.53414, 25.11633]}}, {"properties": {"sno": "500104009", "sna": "YouBike2.0_臺北市立大學(天母校區)", "tot": "16", "sbi": "4", "sbi_2": "5", "sarea": "士林區", "mday": "2022-05-24 15:27:11", "lat": "25.11356", "lng": "121.53718", "ar": "士東路276號至280號對面人行道", "bemp": "11", "bemp_2": "11", "act": "1", "ub_tyope2_0": 2.0, "ub_tyope1_0": 0.0, "ub_time0": 0, "ub_time5": 5}, "geometry": {"coordinates": [121.53718, 25.11356]}}, {"properties": {"sno": "500104010", "sna": "YouBike2.0_忠誠路二段53巷", "tot": "18", "sbi": "5", "sbi_2": "9", "sarea": "士林區", "mday": "2022-05-24 14:21:12", "lat": "25.11127", "lng": "121.53244", "ar": "忠誠路2段53巷7號(對面)", "bemp": "10", "bemp_2": "9", "act": "1", "ub_tyope2_0": 2.0, "ub_tyope1_0": 0.0, "ub_time0": 0, "ub_time5": 5}, "geometry": {"coordinates": [121.53244, 25.11127]}}, {"properties": {"sno": "500104011", "sna": "YouBike2.0_天母國中", "tot": "18", "sbi": "7", "sbi_2": "6", "sarea": "士林區", "mday": "2022-05-24 12:14:11", "lat": "25.11811", "lng": "121.53875", "ar": "天母東路120號(斜前方)", "bemp": "11", "bemp_2": "12", "act": "1", "ub_tyope2_0": 2.0, "ub_tyope1_0": 0.0, "ub_time0": 0, "ub_time5": 5}, "geometry": {"coordinates": [121.53875, 25.11811]}}, {"properties": {"sno": "500104012", "sna": "YouBike2.0_天母棒球場", "tot": "26", "sbi": "11", "sbi_2": "13", "sarea": "士林區", "mday": "2022-05-24 15:06:11", "lat": "25.11341", "lng": "121.53195", "ar": "忠誠路二段122號(對面)", "bemp": "15", "bemp_2": "13", "act": "1", "ub_tyope2_0": 2.0, "ub_tyope1_0": 0.0, "ub_time0": 0, "ub_time5": 5}, "geometry": {"coordinates": [121.53195, 25.11341]}}, {"properties": {"sno": "500104013", "sna": "YouBike2.0_天母北天玉街口", "tot": "15", "sbi": "1", "sbi_2": "2", "sarea": "士林區", "mday": "2022-05-24 13:27:11", "lat": "25.12011", "lng": "121.52652", "ar": "天母北路33號(前)", "bemp": "14", "bemp_2": "13", "act": "1", "ub_tyope2_0": 2.0, "ub_tyope1_0": 0.0, "ub_time0": 0, "ub_time5": 5}, "geometry": {"coordinates": [121.52652, 25.12011]}}, {"properties": {"sno": "500104014", "sna": "YouBike2.0_蘭興公園", "tot": "16", "sbi": "6", "sbi_2": "5", "sarea": "士林區", "mday": "2022-05-24 14:51:11", "lat": "25.11184", "lng": "121.52589", "ar": "中山北路六段/士東路(西北側)", "bemp": "10", "bemp_2": "11", "act": "1", "ub_tyope2_0": 2.0, "ub_tyope1_0": 0.0, "ub_time0": 0, "ub_time5": 5}, "geometry": {"coordinates": [121.52589, 25.11184]}}, {"properties": {"sno": "500104015", "sna": "YouBike2.0_明勝公園", "tot": "14", "sbi": "3", "sbi_2": "5", "sarea": "士林區", "mday": "2022-05-24 15:04:11", "lat": "25.08009", "lng": "121.51895", "ar": "承德路4段6巷71號(對面)", "bemp": "11", "bemp_2": "9", "act": "1", "ub_tyope2_0": 2.0, "ub_tyope1_0": 0.0, "ub_time0": 0, "ub_time5": 5}, "geometry": {"coordinates": [121.51895, 25.08009]}}, {"properties": {"sno": "500104016", "sna": "YouBike2.0_劍潭海外青年活動中心", "tot": "23", "sbi": "7", "sbi_2": "7", "sarea": "士林區", "mday": "2022-05-24 15:29:11", "lat": "25.07994", "lng": "121.52426", "ar": "中山北路4段/通河街口", "bemp": "16", "bemp_2": "16", "act": "1", "ub_tyope2_0": 2.0, "ub_tyope1_0": 0.0, "ub_time0": 0, "ub_time5": 5}, "geometry": {"coordinates": [121.52426, 25.07994]}}, {"properties": {"sno": "500104018", "sna": "YouBike2.0_忠誠路一段173巷口", "tot": "11", "sbi": "1", "sbi_2": "2", "sarea": "士林區", "mday": "2022-05-24 11:53:11", "lat": "25.10813", "lng": "121.5304", "ar": "忠誠路一段177號(前)", "bemp": "10", "bemp_2": "9", "act": "1", "ub_tyope2_0": 2.0, "ub_tyope1_0": 0.0, "ub_time0": 0, "ub_time5": 5}, "geometry": {"coordinates": [121.5304, 25.10813]}}, {"properties": {"sno": "500104019", "sna": "YouBike2.0_雨農國小", "tot": "32", "sbi": "20", "sbi_2": "23", "sarea": "士林區", "mday": "2022-05-24 14:56:37", "lat": "25.10564", "lng": "121.52916", "ar": "忠誠路一段127號(前)", "bemp": "12", "bemp_2": "9", "act": "1", "ub_tyope2_0": 2.0, "ub_tyope1_0": 0.0, "ub_time0": 0, "ub_time5": 5}, "geometry": {"coordinates": [121.52916, 25.10564]}}, {"properties": {"sno": "500104020", "sna": "YouBike2.0_忠誠公園", "tot": "14", "sbi": "4", "sbi_2": "5", "sarea": "士林區", "mday": "2022-05-24 14:54:12", "lat": "25.10399", "lng": "121.52593", "ar": "忠誠路一段18號(對面)", "bemp": "10", "bemp_2": "9", "act": "1", "ub_tyope2_0": 2.0, "ub_tyope1_0": 0.0, "ub_time0": 0, "ub_time5": 5}, "geometry": {"coordinates": [121.52593, 25.10399]}}, {"properties": {"sno": "500104021", "sna": "YouBike2.0_芝山抽水站", "tot": "21", "sbi": "4", "sbi_2": "7", "sarea": "士林區", "mday": "2022-05-24 12:31:37", "lat": "25.10155", "lng": "121.52832", "ar": "至誠路二段47-49號(前)", "bemp": "16", "bemp_2": "14", "act": "1", "ub_tyope2_0": 2.0, "ub_tyope1_0": 0.0, "ub_time0": 0, "ub_time5": 5}, "geometry": {"coordinates": [121.52832, 25.10155]}}, {"properties": {"sno": "500104022", "sna": "YouBike2.0_至誠路一段305巷口", "tot": "21", "sbi": "12", "sbi_2": "11", "sarea": "士林區", "mday": "2022-05-24 14:26:37", "lat": "25.10186", "lng": "121.53083", "ar": "至誠路一段303號(對面)", "bemp": "9", "bemp_2": "10", "act": "1", "ub_tyope2_0": 2.0, "ub_tyope1_0": 0.0, "ub_time0": 0, "ub_time5": 5}, "geometry": {"coordinates": [121.53083, 25.10186]}}, {"properties": {"sno": "500104023", "sna": "YouBike2.0_華齡公園", "tot": "18", "sbi": "6", "sbi_2": "6", "sarea": "士林區", "mday": "2022-05-24 15:28:04", "lat": "25.08302", "lng": "121.52069", "ar": "劍潭路76號(對面)", "bemp": "12", "bemp_2": "12", "act": "1", "ub_tyope2_0": 2.0, "ub_tyope1_0": 0.0, "ub_time0": 0, "ub_time5": 5}, "geometry": {"coordinates": [121.52069, 25.08302]}}, {"properties": {"sno": "500104024", "sna": "YouBike2.0_前港公園(福德宮)", "tot": "18", "sbi": "2", "sbi_2": "2", "sarea": "士林區", "mday": "2022-05-24 14:49:11", "lat": "25.08671", "lng": "121.52096", "ar": "後港街134巷/後港街口", "bemp": "16", "bemp_2": "16", "act": "1", "ub_tyope2_0": 2.0, "ub_tyope1_0": 0.0, "ub_time0": 0, "ub_time5": 5}, "geometry": {"coordinates": [121.52096, 25.08671]}}, {"properties": {"sno": "500104025", "sna": "YouBike2.0_華齡街185巷口", "tot": "12", "sbi": "7", "sbi_2": "6", "sarea": "士林區", "mday": "2022-05-24 15:26:11", "lat": "25.08828", "lng": "121.51985", "ar": "華齡街188號(前)", "bemp": "5", "bemp_2": "6", "act": "1", "ub_tyope2_0": 2.0, "ub_tyope1_0": 0.0, "ub_time0": 0, "ub_time5": 5}, "geometry": {"coordinates": [121.51985, 25.08828]}}, {"properties": {"sno": "500104026", "sna": "YouBike2.0_前港公園(前港街)", "tot": "19", "sbi": "7", "sbi_2": "6", "sarea": "士林區", "mday": "2022-05-24 15:13:37", "lat": "25.0848", "lng": "121.52125", "ar": "前港街48號(對面)", "bemp": "12", "bemp_2": "13", "act": "1", "ub_tyope2_0": 2.0, "ub_tyope1_0": 0.0, "ub_time0": 0, "ub_time5": 5}, "geometry": {"coordinates": [121.52125, 25.0848]}}, {"properties": {"sno": "500104027", "sna": "YouBike2.0_百齡高中", "tot": "15", "sbi": "6", "sbi_2": "5", "sarea": "士林區", "mday": "2022-05-24 13:16:11", "lat": "25.08736", "lng": "121.52272", "ar": "承德路四段179巷/承德路4段口", "bemp": "9", "bemp_2": "10", "act": "1", "ub_tyope2_0": 2.0, "ub_tyope1_0": 0.0, "ub_time0": 0, "ub_time5": 5}, "geometry": {"coordinates": [121.52272, 25.08736]}}, {"properties": {"sno": "500104028", "sna": "YouBike2.0_捷運芝山站(2號出口)", "tot": "21", "sbi": "13", "sbi_2": "15", "sarea": "士林區", "mday": "2022-05-24 15:18:12", "lat": "25.10364", "lng": "121.52219", "ar": "福華路151號(對面)", "bemp": "8", "bemp_2": "6", "act": "1", "ub_tyope2_0": 2.0, "ub_tyope1_0": 0.0, "ub_time0": 0, "ub_time5": 5}, "geometry": {"coordinates": [121.52219, 25.10364]}}, {"properties": {"sno": "500104029", "sna": "YouBike2.0_臺灣戲曲中心", "tot": "14", "sbi": "7", "sbi_2": "7", "sarea": "士林區", "mday": "2022-05-24 14:28:03", "lat": "25.10208", "lng": "121.51979", "ar": "文林路751號(南側)", "bemp": "7", "bemp_2": "7", "act": "1", "ub_tyope2_0": 2.0, "ub_tyope1_0": 0.0, "ub_time0": 0, "ub_time5": 5}, "geometry": {"coordinates": [121.51979, 25.10208]}}, {"properties": {"sno": "500104030", "sna": "YouBike2.0_捷運劍潭站(2號出口)", "tot": "63", "sbi": "34", "sbi_2": "45", "sarea": "士林區", "mday": "2022-05-24 15:29:11", "lat": "25.08288", "lng": "121.52455", "ar": "基河路18號(對面)", "bemp": "22", "bemp_2": "18", "act": "1", "ub_tyope2_0": 2.0, "ub_tyope1_0": 0.0, "ub_time0": 0, "ub_time5": 5}, "geometry": {"coordinates": [121.52455, 25.08288]}}, {"properties": {"sno": "500104031", "sna": "YouBike2.0_劍潭基河路口", "tot": "20", "sbi": "14", "sbi_2": "14", "sarea": "士林區", "mday": "2022-05-24 15:17:37", "lat": "25.08403", "lng": "121.5249", "ar": "劍潭路基河路口(捷運站橋下空間)", "bemp": "6", "bemp_2": "6", "act": "1", "ub_tyope2_0": 2.0, "ub_tyope1_0": 0.0, "ub_time0": 0, "ub_time5": 5}, "geometry": {"coordinates": [121.5249, 25.08403]}}, {"properties": {"sno": "500104032", "sna": "YouBike2.0_志成公園", "tot": "15", "sbi": "2", "sbi_2": "2", "sarea": "士林區", "mday": "2022-05-24 15:30:23", "lat": "25.09667", "lng": "121.53206", "ar": "中正路/雨農路口(西北側)", "bemp": "13", "bemp_2": "13", "act": "1", "ub_tyope2_0": 2.0, "ub_tyope1_0": 0.0, "ub_time0": 0, "ub_time5": 5}, "geometry": {"coordinates": [121.53206, 25.09667]}}, {"properties": {"sno": "500104033", "sna": "YouBike2.0_福林國小", "tot": "14", "sbi": "7", "sbi_2": "7", "sarea": "士林區", "mday": "2022-05-24 11:11:37", "lat": "25.09896", "lng": "121.53025", "ar": "福志路50號(對面)", "bemp": "7", "bemp_2": "7", "act": "1", "ub_tyope2_0": 2.0, "ub_tyope1_0": 0.0, "ub_time0": 0, "ub_time5": 5}, "geometry": {"coordinates": [121.53025, 25.09896]}}, {"properties": {"sno": "500104034", "sna": "YouBike2.0_中山中正路口", "tot": "19", "sbi": "12", "sbi_2": "14", "sarea": "士林區", "mday": "2022-05-24 15:27:04", "lat": "25.09651", "lng": "121.52753", "ar": "中山北路五段609號(前)", "bemp": "7", "bemp_2": "5", "act": "1", "ub_tyope2_0": 2.0, "ub_tyope1_0": 0.0, "ub_time0": 0, "ub_time5": 5}, "geometry": {"coordinates": [121.52753, 25.09651]}}, {"properties": {"sno": "500104035", "sna": "YouBike2.0_士林運動中心", "tot": "27", "sbi": "5", "sbi_2": "3", "sarea": "士林區", "mday": "2022-05-24 15:14:10", "lat": "25.08911", "lng": "121.52154", "ar": "士商路1號(前)", "bemp": "22", "bemp_2": "24", "act": "1", "ub_tyope2_0": 2.0, "ub_tyope1_0": 0.0, "ub_time0": 0, "ub_time5": 5}, "geometry": {"coordinates": [121.52154, 25.08911]}}, {"properties": {"sno": "500104036", "sna": "YouBike2.0_陽明高中", "tot": "36", "sbi": "13", "sbi_2": "11", "sarea": "士林區", "mday": "2022-05-24 15:06:11", "lat": "25.09164", "lng": "121.51706", "ar": "中正路510號(前)", "bemp": "23", "bemp_2": "25", "act": "1", "ub_tyope2_0": 2.0, "ub_tyope1_0": 0.0, "ub_time0": 0, "ub_time5": 5}, "geometry": {"coordinates": [121.51706, 25.09164]}}, {"properties": {"sno": "500104037", "sna": "YouBike2.0_兒童新樂園", "tot": "23", "sbi": "11", "sbi_2": "12", "sarea": "士林區", "mday": "2022-05-24 14:35:12", "lat": "25.09631", "lng": "121.51449", "ar": "承德路五段55號(旁公車亭)", "bemp": "12", "bemp_2": "11", "act": "1", "ub_tyope2_0": 2.0, "ub_tyope1_0": 0.0, "ub_time0": 0, "ub_time5": 5}, "geometry": {"coordinates": [121.51449, 25.09631]}}, {"properties": {"sno": "500104038", "sna": "YouBike2.0_臺北市立天文館", "tot": "31", "sbi": "14", "sbi_2": "16", "sarea": "士林區", "mday": "2022-05-24 13:03:11", "lat": "25.09598", "lng": "121.51776", "ar": "基河路363號(前)", "bemp": "17", "bemp_2": "15", "act": "1", "ub_tyope2_0": 2.0, "ub_tyope1_0": 0.0, "ub_time0": 0, "ub_time5": 5}, "geometry": {"coordinates": [121.51776, 25.09598]}}, {"properties": {"sno": "500104039", "sna": "YouBike2.0_華聲公園", "tot": "27", "sbi": "5", "sbi_2": "3", "sarea": "士林區", "mday": "2022-05-24 13:24:11", "lat": "25.09619", "lng": "121.5223", "ar": "華聲街17號(南側路側)", "bemp": "22", "bemp_2": "24", "act": "1", "ub_tyope2_0": 2.0, "ub_tyope1_0": 0.0, "ub_time0": 0, "ub_time5": 5}, "geometry": {"coordinates": [121.5223, 25.09619]}}, {"properties": {"sno": "500104040", "sna": "YouBike2.0_福林公園", "tot": "17", "sbi": "0", "sbi_2": "2", "sarea": "士林區", "mday": "2022-05-03 16:11:15", "lat": "25.09419", "lng": "121.52833", "ar": "福林路/中山北路五段(東北側)", "bemp": "17", "bemp_2": "15", "act": "0", "ub_tyope2_0": 2.0, "ub_tyope1_0": 0.0, "ub_time0": 0, "ub_time5": 5}, "geometry": {"coordinates": [121.52833, 25.09419]}}, {"properties": {"sno": "500104041", "sna": "YouBike2.0_捷運士林站(2號出口)", "tot": "31", "sbi": "19", "sbi_2": "22", "sarea": "士林區", "mday": "2022-05-24 14:08:12", "lat": "25.09343", "lng": "121.52642", "ar": "中山北路五段505巷44弄2號(對面)", "bemp": "10", "bemp_2": "9", "act": "1", "ub_tyope2_0": 2.0, "ub_tyope1_0": 0.0, "ub_time0": 0, "ub_time5": 5}, "geometry": {"coordinates": [121.52642, 25.09343]}}, {"properties": {"sno": "500104042", "sna": "YouBike2.0_銘傳大學", "tot": "30", "sbi": "4", "sbi_2": "3", "sarea": "士林區", "mday": "2022-05-24 12:28:11", "lat": "25.08771", "lng": "121.52677", "ar": "中山北路五段250號(銘傳大學對側)", "bemp": "26", "bemp_2": "27", "act": "1", "ub_tyope2_0": 2.0, "ub_tyope1_0": 0.0, "ub_time0": 0, "ub_time5": 5}, "geometry": {"coordinates": [121.52677, 25.08771]}}, {"properties": {"sno": "500104043", "sna": "YouBike2.0_士林高商", "tot": "26", "sbi": "10", "sbi_2": "8", "sarea": "士林區", "mday": "2022-05-24 15:33:38", "lat": "25.09435", "lng": "121.51702", "ar": "士商路150號(校門旁)", "bemp": "16", "bemp_2": "18", "act": "1", "ub_tyope2_0": 2.0, "ub_tyope1_0": 0.0, "ub_time0": 0, "ub_time5": 5}, "geometry": {"coordinates": [121.51702, 25.09435]}}, {"properties": {"sno": "500104044", "sna": "YouBike2.0_蘭雅公園", "tot": "29", "sbi": "8", "sbi_2": "9", "sarea": "士林區", "mday": "2022-05-24 15:25:27", "lat": "25.10991", "lng": "121.53039", "ar": "忠誠路二段/忠誠路二段40巷(西南側)", "bemp": "21", "bemp_2": "20", "act": "1", "ub_tyope2_0": 2.0, "ub_tyope1_0": 0.0, "ub_time0": 0, "ub_time5": 5}, "geometry": {"coordinates": [121.53039, 25.10991]}}, {"properties": {"sno": "500104045", "sna": "YouBike2.0_聯合醫院陽明院區", "tot": "15", "sbi": "9", "sbi_2": "8", "sarea": "士林區", "mday": "2022-05-24 11:03:11", "lat": "25.10455", "lng": "121.53195", "ar": "雨聲街105號(南側)", "bemp": "6", "bemp_2": "7", "act": "1", "ub_tyope2_0": 2.0, "ub_tyope1_0": 0.0, "ub_time0": 0, "ub_time5": 5}, "geometry": {"coordinates": [121.53195, 25.10455]}}, {"properties": {"sno": "500104046", "sna": "YouBike2.0_捷運芝山站(1號出口)", "tot": "36", "sbi": "18", "sbi_2": "26", "sarea": "士林區", "mday": "2022-05-24 15:08:37", "lat": "25.10225", "lng": "121.52286", "ar": "福華路114號(對面)", "bemp": "13", "bemp_2": "10", "act": "1", "ub_tyope2_0": 2.0, "ub_tyope1_0": 0.0, "ub_time0": 0, "ub_time5": 5}, "geometry": {"coordinates": [121.52286, 25.10225]}}, {"properties": {"sno": "500104047", "sna": "YouBike2.0_至誠公園", "tot": "15", "sbi": "3", "sbi_2": "2", "sarea": "士林區", "mday": "2022-05-24 12:54:37", "lat": "25.10143", "lng": "121.53585", "ar": "至誠路一段80號(對面)", "bemp": "12", "bemp_2": "13", "act": "1", "ub_tyope2_0": 2.0, "ub_tyope1_0": 0.0, "ub_time0": 0, "ub_time5": 5}, "geometry": {"coordinates": [121.53585, 25.10143]}}, {"properties": {"sno": "500104048", "sna": "YouBike2.0_原住民文化主題公園", "tot": "21", "sbi": "8", "sbi_2": "7", "sarea": "士林區", "mday": "2022-05-24 10:10:19", "lat": "25.10113", "lng": "121.55159", "ar": "至善路二段280號(對面)", "bemp": "13", "bemp_2": "14", "act": "1", "ub_tyope2_0": 2.0, "ub_tyope1_0": 0.0, "ub_time0": 0, "ub_time5": 5}, "geometry": {"coordinates": [121.55159, 25.10113]}}, {"properties": {"sno": "500104049", "sna": "YouBike2.0_通河東街2段10巷口", "tot": "15", "sbi": "4", "sbi_2": "5", "sarea": "士林區", "mday": "2022-05-24 12:37:11", "lat": "25.09106", "lng": "121.51502", "ar": "通河東街2段5號(對面)", "bemp": "11", "bemp_2": "10", "act": "1", "ub_tyope2_0": 2.0, "ub_tyope1_0": 0.0, "ub_time0": 0, "ub_time5": 5}, "geometry": {"coordinates": [121.51502, 25.09106]}}, {"properties": {"sno": "500104050", "sna": "YouBike2.0_梅林新村", "tot": "15", "sbi": "4", "sbi_2": "5", "sarea": "士林區", "mday": "2022-05-24 13:33:38", "lat": "25.09755", "lng": "121.54036", "ar": "至善路一段/至善路一段138巷(北側)", "bemp": "11", "bemp_2": "10", "act": "1", "ub_tyope2_0": 2.0, "ub_tyope1_0": 0.0, "ub_time0": 0, "ub_time5": 5}, "geometry": {"coordinates": [121.54036, 25.09755]}}, {"properties": {"sno": "500104051", "sna": "YouBike2.0_延平北中正路口", "tot": "30", "sbi": "7", "sbi_2": "9", "sarea": "士林區", "mday": "2022-05-24 15:07:38", "lat": "25.08678", "lng": "121.50948", "ar": "中正路613號(對面)", "bemp": "22", "bemp_2": "21", "act": "1", "ub_tyope2_0": 2.0, "ub_tyope1_0": 0.0, "ub_time0": 0, "ub_time5": 5}, "geometry": {"coordinates": [121.50948, 25.08678]}}, {"properties": {"sno": "500104052", "sna": "YouBike2.0_重慶北路四段190巷口", "tot": "13", "sbi": "6", "sbi_2": "7", "sarea": "士林區", "mday": "2022-05-24 15:25:12", "lat": "25.08505", "lng": "121.51166", "ar": "重慶北路四段198號(前)", "bemp": "7", "bemp_2": "6", "act": "1", "ub_tyope2_0": 2.0, "ub_tyope1_0": 0.0, "ub_time0": 0, "ub_time5": 5}, "geometry": {"coordinates": [121.51166, 25.08505]}}, {"properties": {"sno": "500104053", "sna": "YouBike2.0_重慶北葫東街口", "tot": "15", "sbi": "5", "sbi_2": "5", "sarea": "士林區", "mday": "2022-05-24 14:41:38", "lat": "25.08393", "lng": "121.51169", "ar": "重慶北路四段177號(前)", "bemp": "10", "bemp_2": "10", "act": "1", "ub_tyope2_0": 2.0, "ub_tyope1_0": 0.0, "ub_time0": 0, "ub_time5": 5}, "geometry": {"coordinates": [121.51169, 25.08393]}}, {"properties": {"sno": "500104054", "sna": "YouBike2.0_葫蘆國小", "tot": "20", "sbi": "8", "sbi_2": "6", "sarea": "士林區", "mday": "2022-05-24 14:14:37", "lat": "25.08254", "lng": "121.5075", "ar": "環河北路三段/葫蘆街(東北側)", "bemp": "12", "bemp_2": "14", "act": "1", "ub_tyope2_0": 2.0, "ub_tyope1_0": 0.0, "ub_time0": 0, "ub_time5": 5}, "geometry": {"coordinates": [121.5075, 25.08254]}}, {"properties": {"sno": "500104055", "sna": "YouBike2.0_士林3號廣場", "tot": "30", "sbi": "15", "sbi_2": "15", "sarea": "士林區", "mday": "2022-05-24 14:49:11", "lat": "25.10459", "lng": "121.52417", "ar": "中山北路六段81號(旁)", "bemp": "12", "bemp_2": "15", "act": "1", "ub_tyope2_0": 2.0, "ub_tyope1_0": 0.0, "ub_time0": 0, "ub_time5": 5}, "geometry": {"coordinates": [121.52417, 25.10459]}}, {"properties": {"sno": "500104056", "sna": "YouBike2.0_社正公園", "tot": "15", "sbi": "5", "sbi_2": "5", "sarea": "士林區", "mday": "2022-05-24 15:05:11", "lat": "25.08824", "lng": "121.51054", "ar": "社中街39號(對面)", "bemp": "9", "bemp_2": "10", "act": "1", "ub_tyope2_0": 2.0, "ub_tyope1_0": 0.0, "ub_time0": 0, "ub_time5": 5}, "geometry": {"coordinates": [121.51054, 25.08824]}}, {"properties": {"sno": "500104057", "sna": "YouBike2.0_社子國小", "tot": "15", "sbi": "5", "sbi_2": "5", "sarea": "士林區", "mday": "2022-05-24 11:55:38", "lat": "25.09058", "lng": "121.50142", "ar": "社中街476號(對面)", "bemp": "10", "bemp_2": "10", "act": "1", "ub_tyope2_0": 2.0, "ub_tyope1_0": 0.0, "ub_time0": 0, "ub_time5": 5}, "geometry": {"coordinates": [121.50142, 25.09058]}}, {"properties": {"sno": "500104058", "sna": "YouBike2.0_社中街384巷口", "tot": "18", "sbi": "10", "sbi_2": "9", "sarea": "士林區", "mday": "2022-05-24 08:58:10", "lat": "25.09346", "lng": "121.50376", "ar": "通河西街二段194號(對面)", "bemp": "8", "bemp_2": "9", "act": "1", "ub_tyope2_0": 2.0, "ub_tyope1_0": 0.0, "ub_time0": 0, "ub_time5": 5}, "geometry": {"coordinates": [121.50376, 25.09346]}}, {"properties": {"sno": "500104059", "sna": "YouBike2.0_忠誠路一段138號", "tot": "15", "sbi": "10", "sbi_2": "11", "sarea": "士林區", "mday": "2022-05-24 14:42:37", "lat": "25.10641", "lng": "121.52944", "ar": "忠誠路一段138號(斜前方)", "bemp": "5", "bemp_2": "4", "act": "1", "ub_tyope2_0": 2.0, "ub_tyope1_0": 0.0, "ub_time0": 0, "ub_time5": 5}, "geometry": {"coordinates": [121.52944, 25.10641]}}, {"properties": {"sno": "500104060", "sna": "YouBike2.0_社子公園", "tot": "14", "sbi": "7", "sbi_2": "7", "sarea": "士林區", "mday": "2022-05-24 14:20:39", "lat": "25.0902", "lng": "121.50622", "ar": "永平街20巷37弄/永平街20巷11弄(社子公園南側)", "bemp": "6", "bemp_2": "7", "act": "1", "ub_tyope2_0": 2.0, "ub_tyope1_0": 0.0, "ub_time0": 0, "ub_time5": 5}, "geometry": {"coordinates": [121.50622, 25.0902]}}, {"properties": {"sno": "500104061", "sna": "YouBike2.0_國立故宮博物院", "tot": "17", "sbi": "5", "sbi_2": "6", "sarea": "士林區", "mday": "2022-05-24 15:11:11", "lat": "25.09833", "lng": "121.54788", "ar": "力行街8號(對面)", "bemp": "12", "bemp_2": "11", "act": "1", "ub_tyope2_0": 2.0, "ub_tyope1_0": 0.0, "ub_time0": 0, "ub_time5": 5}, "geometry": {"coordinates": [121.54788, 25.09833]}}, {"properties": {"sno": "500104062", "sna": "YouBike2.0_泰北高中", "tot": "12", "sbi": "2", "sbi_2": "2", "sarea": "士林區", "mday": "2022-05-24 11:41:37", "lat": "25.09763", "lng": "121.53402", "ar": "福林路240號(前)", "bemp": "10", "bemp_2": "10", "act": "1", "ub_tyope2_0": 2.0, "ub_tyope1_0": 0.0, "ub_time0": 0, "ub_time5": 5}, "geometry": {"coordinates": [121.53402, 25.09763]}}, {"properties": {"sno": "500104063", "sna": "YouBike2.0_後港公園", "tot": "15", "sbi": "7", "sbi_2": "8", "sarea": "士林區", "mday": "2022-05-24 12:25:12", "lat": "25.09312", "lng": "121.51419", "ar": "通河東街二段26號(旁公園)", "bemp": "8", "bemp_2": "7", "act": "1", "ub_tyope2_0": 2.0, "ub_tyope1_0": 0.0, "ub_time0": 0, "ub_time5": 5}, "geometry": {"coordinates": [121.51419, 25.09312]}}, {"properties": {"sno": "500104064", "sna": "YouBike2.0_重慶北路四段117號", "tot": "18", "sbi": "5", "sbi_2": "6", "sarea": "士林區", "mday": "2022-05-24 13:09:11", "lat": "25.08279", "lng": "121.51219", "ar": "重慶北路四段117號(前)", "bemp": "13", "bemp_2": "12", "act": "1", "ub_tyope2_0": 2.0, "ub_tyope1_0": 0.0, "ub_time0": 0, "ub_time5": 5}, "geometry": {"coordinates": [121.51219, 25.08279]}}, {"properties": {"sno": "500104065", "sna": "YouBike2.0_社子島島頭公園", "tot": "15", "sbi": "10", "sbi_2": "11", "sarea": "士林區", "mday": "2022-05-24 15:27:37", "lat": "25.10893", "lng": "121.46639", "ar": "延平北路九段323號(後方堤外)", "bemp": "5", "bemp_2": "4", "act": "1", "ub_tyope2_0": 2.0, "ub_tyope1_0": 0.0, "ub_time0": 0, "ub_time5": 5}, "geometry": {"coordinates": [121.46639, 25.10893]}}, {"properties": {"sno": "500104066", "sna": "YouBike2.0_延平北路八段133巷口", "tot": "15", "sbi": "3", "sbi_2": "2", "sarea": "士林區", "mday": "2022-05-24 08:38:11", "lat": "25.10304", "lng": "121.48297", "ar": "延平北路八段133巷42號(對面)", "bemp": "12", "bemp_2": "13", "act": "1", "ub_tyope2_0": 2.0, "ub_tyope1_0": 0.0, "ub_time0": 0, "ub_time5": 5}, "geometry": {"coordinates": [121.48297, 25.10304]}}, {"properties": {"sno": "500104067", "sna": "YouBike2.0_坤天亭", "tot": "14", "sbi": "7", "sbi_2": "7", "sarea": "士林區", "mday": "2022-05-24 05:54:11", "lat": "25.1064", "lng": "121.4836", "ar": "延平北路八段96巷15號(前)", "bemp": "7", "bemp_2": "7", "act": "1", "ub_tyope2_0": 2.0, "ub_tyope1_0": 0.0, "ub_time0": 0, "ub_time5": 5}, "geometry": {"coordinates": [121.4836, 25.1064]}}, {"properties": {"sno": "500104068", "sna": "YouBike2.0_社子島濕地解說小築", "tot": "15", "sbi": "6", "sbi_2": "5", "sarea": "士林區", "mday": "2022-05-24 12:25:38", "lat": "25.11314", "lng": "121.48974", "ar": "社子島濕地解說小築", "bemp": "9", "bemp_2": "10", "act": "1", "ub_tyope2_0": 2.0, "ub_tyope1_0": 0.0, "ub_time0": 0, "ub_time5": 5}, "geometry": {"coordinates": [121.48974, 25.11314]}}, {"properties": {"sno": "500104069", "sna": "YouBike2.0_福安國中", "tot": "11", "sbi": "5", "sbi_2": "6", "sarea": "士林區", "mday": "2022-05-22 17:10:19", "lat": "25.10261", "lng": "121.48819", "ar": "延平北路七段250號(前)", "bemp": "6", "bemp_2": "5", "act": "1", "ub_tyope2_0": 2.0, "ub_tyope1_0": 0.0, "ub_time0": 0, "ub_time5": 5}, "geometry": {"coordinates": [121.48819, 25.10261]}}, {"properties": {"sno": "500104070", "sna": "YouBike2.0_福安消防分隊", "tot": "15", "sbi": "4", "sbi_2": "5", "sarea": "士林區", "mday": "2022-05-24 13:25:12", "lat": "25.09669", "lng": "121.49706", "ar": "延平北路七段42之7號(對面)", "bemp": "11", "bemp_2": "10", "act": "1", "ub_tyope2_0": 2.0, "ub_tyope1_0": 0.0, "ub_time0": 0, "ub_time5": 5}, "geometry": {"coordinates": [121.49706, 25.09669]}}, {"properties": {"sno": "500104071", "sna": "YouBike2.0_聖山綠地", "tot": "15", "sbi": "6", "sbi_2": "5", "sarea": "士林區", "mday": "2022-05-24 15:09:11", "lat": "25.10696", "lng": "121.53234", "ar": "忠義街94號(旁)", "bemp": "9", "bemp_2": "10", "act": "1", "ub_tyope2_0": 2.0, "ub_tyope1_0": 0.0, "ub_time0": 0, "ub_time5": 5}, "geometry": {"coordinates": [121.53234, 25.10696]}}, {"properties": {"sno": "500104072", "sna": "YouBike2.0_芝山國小", "tot": "14", "sbi": "6", "sbi_2": "7", "sarea": "士林區", "mday": "2022-05-24 15:20:39", "lat": "25.11044", "lng": "121.53595", "ar": "德行東路285號(德行東路283巷側人行道)", "bemp": "8", "bemp_2": "7", "act": "1", "ub_tyope2_0": 2.0, "ub_tyope1_0": 0.0, "ub_time0": 0, "ub_time5": 5}, "geometry": {"coordinates": [121.53595, 25.11044]}}, {"properties": {"sno": "500104073", "sna": "YouBike2.0_士林新天地", "tot": "19", "sbi": "3", "sbi_2": "6", "sarea": "士林區", "mday": "2022-05-24 15:26:03", "lat": "25.08899", "lng": "121.51751", "ar": "大南路325號前方", "bemp": "14", "bemp_2": "13", "act": "1", "ub_tyope2_0": 2.0, "ub_tyope1_0": 0.0, "ub_time0": 0, "ub_time5": 5}, "geometry": {"coordinates": [121.51751, 25.08899]}}, {"properties": {"sno": "500104074", "sna": "YouBike2.0_蘭雅國小", "tot": "11", "sbi": "0", "sbi_2": "2", "sarea": "士林區", "mday": "2022-05-24 14:24:04", "lat": "25.10775", "lng": "121.52312", "ar": "礦溪街與中山北路六段195巷口", "bemp": "11", "bemp_2": "9", "act": "1", "ub_tyope2_0": 2.0, "ub_tyope1_0": 0.0, "ub_time0": 0, "ub_time5": 5}, "geometry": {"coordinates": [121.52312, 25.10775]}}, {"properties": {"sno": "500104075", "sna": "YouBike2.0_中正基河路口", "tot": "28", "sbi": "12", "sbi_2": "14", "sarea": "士林區", "mday": "2022-05-24 13:31:12", "lat": "25.0933", "lng": "121.51962", "ar": "中正路420號前", "bemp": "16", "bemp_2": "14", "act": "1", "ub_tyope2_0": 2.0, "ub_tyope1_0": 0.0, "ub_time0": 0, "ub_time5": 5}, "geometry": {"coordinates": [121.51962, 25.0933]}}, {"properties": {"sno": "500104076", "sna": "YouBike2.0_福林公園(中正路)", "tot": "27", "sbi": "11", "sbi_2": "14", "sarea": "士林區", "mday": "2022-05-24 14:06:12", "lat": "25.09609", "lng": "121.53006", "ar": "中正路/志成街口(南側)", "bemp": "16", "bemp_2": "13", "act": "1", "ub_tyope2_0": 2.0, "ub_tyope1_0": 0.0, "ub_time0": 0, "ub_time5": 5}, "geometry": {"coordinates": [121.53006, 25.09609]}}, {"properties": {"sno": "500104077", "sna": "YouBike2.0_至善臨溪路口", "tot": "22", "sbi": "13", "sbi_2": "11", "sarea": "士林區", "mday": "2022-05-24 12:14:37", "lat": "25.09709", "lng": "121.54229", "ar": "至善路一段/臨溪路(西南側)", "bemp": "9", "bemp_2": "11", "act": "1", "ub_tyope2_0": 2.0, "ub_tyope1_0": 0.0, "ub_time0": 0, "ub_time5": 5}, "geometry": {"coordinates": [121.54229, 25.09709]}}, {"properties": {"sno": "500104078", "sna": "YouBike2.0_市立圖書館葫蘆堵分館", "tot": "10", "sbi": "3", "sbi_2": "3", "sarea": "士林區", "mday": "2022-05-24 10:50:18", "lat": "25.08217", "lng": "121.51074", "ar": "延平北路五段136巷1號前", "bemp": "7", "bemp_2": "7", "act": "1", "ub_tyope2_0": 2.0, "ub_tyope1_0": 0.0, "ub_time0": 0, "ub_time5": 5}, "geometry": {"coordinates": [121.51074, 25.08217]}}, {"properties": {"sno": "500104079", "sna": "YouBike2.0_東山路110巷口", "tot": "16", "sbi": "7", "sbi_2": "8", "sarea": "士林區", "mday": "2022-05-24 13:34:37", "lat": "25.11306", "lng": "121.53945", "ar": "東山路114號對側", "bemp": "9", "bemp_2": "8", "act": "1", "ub_tyope2_0": 2.0, "ub_tyope1_0": 0.0, "ub_time0": 0, "ub_time5": 5}, "geometry": {"coordinates": [121.53945, 25.11306]}}, {"properties": {"sno": "500104080", "sna": "YouBike2.0_永平社會住宅", "tot": "15", "sbi": "5", "sbi_2": "5", "sarea": "士林區", "mday": "2022-05-24 12:34:11", "lat": "25.08887", "lng": "121.50314", "ar": "環河北路三段261巷2號", "bemp": "10", "bemp_2": "10", "act": "1", "ub_tyope2_0": 2.0, "ub_tyope1_0": 0.0, "ub_time0": 0, "ub_time5": 5}, "geometry": {"coordinates": [121.50314, 25.08887]}}, {"properties": {"sno": "500104081", "sna": "YouBike2.0_雨農橋", "tot": "16", "sbi": "5", "sbi_2": "5", "sarea": "士林區", "mday": "2022-05-24 13:05:37", "lat": "25.10012", "lng": "121.53253", "ar": "福志路14巷42號(對面)", "bemp": "11", "bemp_2": "11", "act": "1", "ub_tyope2_0": 2.0, "ub_tyope1_0": 0.0, "ub_time0": 0, "ub_time5": 5}, "geometry": {"coordinates": [121.53253, 25.10012]}}, {"properties": {"sno": "500104082", "sna": "YouBike2.0_通河街76巷/承德路四段10巷口", "tot": "14", "sbi": "9", "sbi_2": "10", "sarea": "士林區", "mday": "2022-05-24 15:31:12", "lat": "25.08019", "lng": "121.5202", "ar": "承德路四段10巷37號(旁)", "bemp": "5", "bemp_2": "4", "act": "1", "ub_tyope2_0": 2.0, "ub_tyope1_0": 0.0, "ub_time0": 0, "ub_time5": 5},